{"type":"FeatureCollection","features":[{"type":"Feature","geometry":{"type":"Point","coordinates":[-99.1131332,19.42885971]},"properties":{"id":"6306608","nombre":"MTTA03DELIMART EXP AU1","giro":"minisuper","scian":"462112","personalOcupado":"6 a 10 personas","direccion":"CALZADA GENERAL IGNACIO ZARAGOZA 200","colonia":"7 DE JULIO","codigoPostal":"15390","alcaldia":"Venustiano Carranza","lat":19.42885971,"lng":-99.1131332,"fechaAlta":"2010-07"}},{"type":"Feature","geometry":{"type":"Point","coordinates":[-99.08609042,19.35773356]},"properties":{"id":"8612330","nombre":"MINISUPER MINI MAX","giro":"minisuper","scian":"462112","personalOcupado":"6 a 10 personas","direccion":"EJE VIAL 5 ORIENTE AVENIDA JAVIER ROJO GOMEZ 1481","colonia":"SAN PABLO","codigoPostal":"09000","alcaldia":"Iztapalapa","lat":19.35773356,"lng":-99.08609042,"fechaAlta":"2019-11"}},{"type":"Feature","geometry":{"type":"Point","coordinates":[-99.16311609,19.39673353]},"properties":{"id":"6319260","nombre":"OXXO SUC 50EKS EJE 4 SUR MEX","giro":"minisuper","scian":"462112","personalOcupado":"6 a 10 personas","direccion":"EJE VIAL 4 SUR (XOLA) 706","colonia":"DEL VALLE NORTE","codigoPostal":"03100","alcaldia":"Benito Juárez","lat":19.39673353,"lng":-99.16311609,"fechaAlta":"2010-07"}},{"type":"Feature","geometry":{"type":"Point","coordinates":[-99.15971264,19.43260907]},"properties":{"id":"9445910","nombre":"OXXO SUC 50WH0 JAMES MEX","giro":"minisuper","scian":"462112","personalOcupado":"6 a 10 personas","direccion":"CALLE JAMES SULLIVAN 11","colonia":"SAN RAFAEL","codigoPostal":"06470","alcaldia":"Cuauhtémoc","lat":19.43260907,"lng":-99.15971264,"fechaAlta":"2024-05"}},{"type":"Feature","geometry":{"type":"Point","coordinates":[-99.22065355,19.43629529]},"properties":{"id":"760541","nombre":"MINISUPER SEDENA","giro":"minisuper","scian":"462112","personalOcupado":"6 a 10 personas","direccion":"AVENIDA INDUSTRIA MILITAR 1050","colonia":"RESIDENCIAL MILITAR","codigoPostal":"11600","alcaldia":"Miguel Hidalgo","lat":19.43629529,"lng":-99.22065355,"fechaAlta":"2011-03"}},{"type":"Feature","geometry":{"type":"Point","coordinates":[-99.06666238,19.34705999]},"properties":{"id":"6852361","nombre":"OXXO SUC 50EL0 SANTILLAN MEX","giro":"minisuper","scian":"462112","personalOcupado":"6 a 10 personas","direccion":"EJE VIAL 8 SUR CALZADA ERMITA IZTAPALAPA 2021","colonia":"LOS NGELES","codigoPostal":"09830","alcaldia":"Iztapalapa","lat":19.34705999,"lng":-99.06666238,"fechaAlta":"2018-11"}},{"type":"Feature","geometry":{"type":"Point","coordinates":[-99.16326854,19.42292285]},"properties":{"id":"6325892","nombre":"OXXO SUC 50WGY GTA. INSURGENTES MEX","giro":"minisuper","scian":"462112","personalOcupado":"6 a 10 personas","direccion":"AVENIDA CHAPULTEPEC 153","colonia":"ROMA NORTE","codigoPostal":"06700","alcaldia":"Cuauhtémoc","lat":19.42292285,"lng":-99.16326854,"fechaAlta":"2011-03"}},{"type":"Feature","geometry":{"type":"Point","coordinates":[-99.04349419,19.30650424]},"properties":{"id":"1051246","nombre":"MINISUPER EL VENADITO","giro":"minisuper","scian":"462112","personalOcupado":"11 a 30 personas","direccion":"CALLE SAN RAFAEL ATLIXCO SN","colonia":"SANTA ANA PONIENTE","codigoPostal":"13300","alcaldia":"Tláhuac","lat":19.30650424,"lng":-99.04349419,"fechaAlta":"2010-07"}},{"type":"Feature","geometry":{"type":"Point","coordinates":[-99.11601641,19.43961748]},"properties":{"id":"695520","nombre":"653808 NETO MORELOS","giro":"minisuper","scian":"462112","personalOcupado":"6 a 10 personas","direccion":"CALLE TAPICERA 97","colonia":"MORELOS","codigoPostal":"15270","alcaldia":"Venustiano Carranza","lat":19.43961748,"lng":-99.11601641,"fechaAlta":"2014-12"}},{"type":"Feature","geometry":{"type":"Point","coordinates":[-99.12060571,19.38015605]},"properties":{"id":"6305853","nombre":"OXXO SUC 50EKJ NOLASCO MEX","giro":"minisuper","scian":"462112","personalOcupado":"6 a 10 personas","direccion":"CALLE JESUS NOLASCO 56","colonia":"APATLACO","codigoPostal":"09430","alcaldia":"Iztapalapa","lat":19.38015605,"lng":-99.12060571,"fechaAlta":"2013-07"}},{"type":"Feature","geometry":{"type":"Point","coordinates":[-99.18583353,19.48448257]},"properties":{"id":"6797495","nombre":"OXXO SUC 50WFU CASTILLA MR MEX","giro":"minisuper","scian":"462112","personalOcupado":"6 a 10 personas","direccion":"AVENIDA AZCAPOTZALCO 730","colonia":"CENTRO DE AZCAPOTZALCO","codigoPostal":"02000","alcaldia":"Azcapotzalco","lat":19.48448257,"lng":-99.18583353,"fechaAlta":"2017-11"}},{"type":"Feature","geometry":{"type":"Point","coordinates":[-99.25685206,19.31339066]},"properties":{"id":"1025610","nombre":"MINISUPER MARI","giro":"minisuper","scian":"462112","personalOcupado":"11 a 30 personas","direccion":"CALLE ALVARO OBREGON 9","colonia":"SAN BERNAB OCOTEPEC","codigoPostal":"10300","alcaldia":"La Magdalena Contreras","lat":19.31339066,"lng":-99.25685206,"fechaAlta":"2010-07"}},{"type":"Feature","geometry":{"type":"Point","coordinates":[-99.05158642000002,19.35117351]},"properties":{"id":"6784147","nombre":"653800 NETO JACARANDAS","giro":"minisuper","scian":"462112","personalOcupado":"6 a 10 personas","direccion":"CALLE MANUEL ACUA 208","colonia":"JACARANDAS","codigoPostal":"09280","alcaldia":"Iztapalapa","lat":19.35117351,"lng":-99.05158642000002,"fechaAlta":"2017-03"}},{"type":"Feature","geometry":{"type":"Point","coordinates":[-99.19618726000002,19.45898165]},"properties":{"id":"6310099","nombre":"OXXO SUC 50EKL LAGO SUPERIOR MEX","giro":"minisuper","scian":"462112","personalOcupado":"6 a 10 personas","direccion":"AVENIDA CALZADA MEXICO TACUBA 1036","colonia":"TORRE BLANCA","codigoPostal":"11280","alcaldia":"Miguel Hidalgo","lat":19.45898165,"lng":-99.19618726000002,"fechaAlta":"2014-12"}},{"type":"Feature","geometry":{"type":"Point","coordinates":[-99.14823623,19.47341261]},"properties":{"id":"6305735","nombre":"OXXO SUC 50WFD CUITLAHUAC MEX","giro":"minisuper","scian":"462112","personalOcupado":"6 a 10 personas","direccion":"CALLE 15 SN","colonia":"PRO HOGAR","codigoPostal":"02600","alcaldia":"Azcapotzalco","lat":19.47341261,"lng":-99.14823623,"fechaAlta":"2014-12"}},{"type":"Feature","geometry":{"type":"Point","coordinates":[-99.21207842,19.33582676]},"properties":{"id":"928895","nombre":"MINISUPER Y TORTAS ANGY BOY","giro":"minisuper","scian":"462112","personalOcupado":"6 a 10 personas","direccion":"CALLE SALVADOR TREJO 10","colonia":"EL MAESTRO","codigoPostal":"10130","alcaldia":"La Magdalena Contreras","lat":19.33582676,"lng":-99.21207842,"fechaAlta":"2014-12"}},{"type":"Feature","geometry":{"type":"Point","coordinates":[-99.13756857,19.4094236]},"properties":{"id":"6319269","nombre":"OXXO SUC 50WKJ ANTONIO SOLIS MEX","giro":"minisuper","scian":"462112","personalOcupado":"6 a 10 personas","direccion":"CALLE 5 DE FEBRERO 131","colonia":"OBRERA","codigoPostal":"06800","alcaldia":"Cuauhtémoc","lat":19.4094236,"lng":-99.13756857,"fechaAlta":"2010-07"}},{"type":"Feature","geometry":{"type":"Point","coordinates":[-99.13959339,19.47845009]},"properties":{"id":"6307545","nombre":"MOLIENDAS DE MEXICO","giro":"minisuper","scian":"462112","personalOcupado":"6 a 10 personas","direccion":"CALLE CENTRAL (LAZARO CARDENAS) 4907","colonia":"MAGDALENA DE LAS SALINAS","codigoPostal":"07760","alcaldia":"Gustavo A. Madero","lat":19.47845009,"lng":-99.13959339,"fechaAlta":"2014-12"}},{"type":"Feature","geometry":{"type":"Point","coordinates":[-99.18239443,19.48148294]},"properties":{"id":"6310086","nombre":"OXXO SUC 50WJW SAN SEBASTIAN MEX","giro":"minisuper","scian":"462112","personalOcupado":"6 a 10 personas","direccion":"CALLE 2 2","colonia":"DEL MAESTRO","codigoPostal":"02040","alcaldia":"Azcapotzalco","lat":19.48148294,"lng":-99.18239443,"fechaAlta":"2010-07"}},{"type":"Feature","geometry":{"type":"Point","coordinates":[-99.07506801,19.24578927]},"properties":{"id":"1034517","nombre":"MINISUPER SOL Y SOMBRA","giro":"minisuper","scian":"462112","personalOcupado":"6 a 10 personas","direccion":"CALLE LICENCIADO PEDRO BENAVIDES 50","colonia":"LA PLANTA","codigoPostal":"16500","alcaldia":"Xochimilco","lat":19.24578927,"lng":-99.07506801,"fechaAlta":"2010-07"}},{"type":"Feature","geometry":{"type":"Point","coordinates":[-99.1247855,19.30790363]},"properties":{"id":"6316334","nombre":"OXXO SUC 50EMH MANTE MEX","giro":"minisuper","scian":"462112","personalOcupado":"6 a 10 personas","direccion":"CALLE RANCHO MANTE 2065","colonia":"LOS GIRASOLES","codigoPostal":"04920","alcaldia":"Coyoacán","lat":19.30790363,"lng":-99.1247855,"fechaAlta":"2010-07"}},{"type":"Feature","geometry":{"type":"Point","coordinates":[-99.0799906,19.39062457]},"properties":{"id":"6305818","nombre":"OXXO SUC 50WJV RIO FRIO MEX","giro":"minisuper","scian":"462112","personalOcupado":"6 a 10 personas","direccion":"EJE VIAL 3 SUR FERROCARRIL DE RIO FRIO 507","colonia":"AGRCOLA ORIENTAL","codigoPostal":"08500","alcaldia":"Iztacalco","lat":19.39062457,"lng":-99.0799906,"fechaAlta":"2014-12"}},{"type":"Feature","geometry":{"type":"Point","coordinates":[-99.00749289,19.20109439]},"properties":{"id":"873352","nombre":"MINISUPER VILLALONGIN","giro":"minisuper","scian":"462112","personalOcupado":"6 a 10 personas","direccion":"CALLE BOULEVARD JOSE LOPEZ PORTILLO SN","colonia":"SAN FRANCISCO TECOXPA","codigoPostal":"12700","alcaldia":"Milpa Alta","lat":19.20109439,"lng":-99.00749289,"fechaAlta":"2010-07"}},{"type":"Feature","geometry":{"type":"Point","coordinates":[-99.2001492,19.47794295]},"properties":{"id":"6305733","nombre":"OXXO SUC 50WJF CANTEMOC MEX","giro":"minisuper","scian":"462112","personalOcupado":"6 a 10 personas","direccion":"CALLE CAMPO ENCANTADO 2","colonia":"SAN ANTONIO","codigoPostal":"02720","alcaldia":"Azcapotzalco","lat":19.47794295,"lng":-99.2001492,"fechaAlta":"2014-12"}},{"type":"Feature","geometry":{"type":"Point","coordinates":[-98.96611518,19.31246335]},"properties":{"id":"9421903","nombre":"653716 NETO SANTA CATARINA","giro":"minisuper","scian":"462112","personalOcupado":"6 a 10 personas","direccion":"AVENIDA CONCEPCIN SN","colonia":"LA CONCEPCION","codigoPostal":"13400","alcaldia":"Tláhuac","lat":19.31246335,"lng":-98.96611518,"fechaAlta":"2023-11"}},{"type":"Feature","geometry":{"type":"Point","coordinates":[-99.01630195,19.37447308]},"properties":{"id":"6307649","nombre":"653697 NETO EL PEN VIEJO","giro":"minisuper","scian":"462112","personalOcupado":"6 a 10 personas","direccion":"CALLE MARCOS LPEZ JIMNEZ SN","colonia":"AMPLIACION SANTA MARTHA ACATITLA","codigoPostal":"09510","alcaldia":"Iztapalapa","lat":19.37447308,"lng":-99.01630195,"fechaAlta":"2010-07"}},{"type":"Feature","geometry":{"type":"Point","coordinates":[-99.0089425,19.34503841]},"properties":{"id":"6784176","nombre":"653524 NETO ACAHUALTEPEC SAUCE","giro":"minisuper","scian":"462112","personalOcupado":"6 a 10 personas","direccion":"CALLE SAUCE 0","colonia":"SANTIAGO ACAHUALTEPEC","codigoPostal":"09609","alcaldia":"Iztapalapa","lat":19.34503841,"lng":-99.0089425,"fechaAlta":"2017-03"}},{"type":"Feature","geometry":{"type":"Point","coordinates":[-99.1177693,19.26435623]},"properties":{"id":"6317348","nombre":"653518 NETO AV. MXICO","giro":"minisuper","scian":"462112","personalOcupado":"6 a 10 personas","direccion":"CALLE CARRETERA VILLAHERMOSA-TEAPA KM 9 MZA 219","colonia":"HUICHAPAN","codigoPostal":"16030","alcaldia":"Xochimilco","lat":19.26435623,"lng":-99.1177693,"fechaAlta":"2010-07"}},{"type":"Feature","geometry":{"type":"Point","coordinates":[-99.1131332,19.42885971]},"properties":{"id":"6325839","nombre":"MTTA04DELIMART KIOSKO 1","giro":"minisuper","scian":"462112","personalOcupado":"0 a 5 personas","direccion":"CALZADA GENERAL IGNACIO ZARAGOZA 200","colonia":"7 DE JULIO","codigoPostal":"15390","alcaldia":"Venustiano Carranza","lat":19.42885971,"lng":-99.1131332,"fechaAlta":"2010-07"}},{"type":"Feature","geometry":{"type":"Point","coordinates":[-99.10561209,19.48897571]},"properties":{"id":"6307637","nombre":"653799 NETO MARTN CARRERA","giro":"minisuper","scian":"462112","personalOcupado":"6 a 10 personas","direccion":"AVENIDA MARTN CARRERA 160","colonia":"MARTIN CARRERA","codigoPostal":"07070","alcaldia":"Gustavo A. Madero","lat":19.48897571,"lng":-99.10561209,"fechaAlta":"2014-12"}},{"type":"Feature","geometry":{"type":"Point","coordinates":[-99.16129826,19.39869008]},"properties":{"id":"6319265","nombre":"OXXO SUC 50WLN VALLE NORTE MEX","giro":"minisuper","scian":"462112","personalOcupado":"6 a 10 personas","direccion":"EJE VIAL 2 PONIENTE (GABRIEL MANCERA) 502","colonia":"DEL VALLE NORTE","codigoPostal":"03100","alcaldia":"Benito Juárez","lat":19.39869008,"lng":-99.16129826,"fechaAlta":"2010-07"}},{"type":"Feature","geometry":{"type":"Point","coordinates":[-99.11313287,19.42885956]},"properties":{"id":"6306606","nombre":"MTTA05DELIMART KIOSCO 4","giro":"minisuper","scian":"462112","personalOcupado":"0 a 5 personas","direccion":"AVENIDA CALZADA GENERAL IGNACIO ZARAGOZA 200","colonia":"7 DE JULIO","codigoPostal":"15390","alcaldia":"Venustiano Carranza","lat":19.42885956,"lng":-99.11313287,"fechaAlta":"2026-04"}},{"type":"Feature","geometry":{"type":"Point","coordinates":[-99.05263614,19.33084471]},"properties":{"id":"6307647","nombre":"653798 NETO INSURGENTES","giro":"minisuper","scian":"462112","personalOcupado":"6 a 10 personas","direccion":"CALLE CANAL RUUPEL LOTE 14 MANZANA 33","colonia":"INSURGENTES","codigoPostal":"09750","alcaldia":"Iztapalapa","lat":19.33084471,"lng":-99.05263614,"fechaAlta":"2014-12"}},{"type":"Feature","geometry":{"type":"Point","coordinates":[-99.15777345,19.45492592]},"properties":{"id":"6322836","nombre":"OXXO SUC 50WLG NARANJO MEX","giro":"minisuper","scian":"462112","personalOcupado":"6 a 10 personas","direccion":"AVENIDA RICARDO FLORES MAGN 268","colonia":"ATLAMPA","codigoPostal":"06450","alcaldia":"Cuauhtémoc","lat":19.45492592,"lng":-99.15777345,"fechaAlta":"2014-12"}},{"type":"Feature","geometry":{"type":"Point","coordinates":[-99.10196901,19.26217832]},"properties":{"id":"6784248","nombre":"653725 NETO NUEVO LEN","giro":"minisuper","scian":"462112","personalOcupado":"6 a 10 personas","direccion":"CALLE NUEVO LEN 32","colonia":"BARRIO LA GUADALUPITA","codigoPostal":"16070","alcaldia":"Xochimilco","lat":19.26217832,"lng":-99.10196901,"fechaAlta":"2017-03"}},{"type":"Feature","geometry":{"type":"Point","coordinates":[-99.13316099,19.38662077]},"properties":{"id":"6305780","nombre":"OXXO SUC 50WKZ REFORMA MEX","giro":"minisuper","scian":"462112","personalOcupado":"6 a 10 personas","direccion":"CALLE LUIS GONZAGA INCLN 4","colonia":"IZTACCHUATL","codigoPostal":"08810","alcaldia":"Iztacalco","lat":19.38662077,"lng":-99.13316099,"fechaAlta":"2014-12"}},{"type":"Feature","geometry":{"type":"Point","coordinates":[-99.07444307,19.49212023]},"properties":{"id":"6307638","nombre":"653717 NETO SAN FELIPE DE JESS 1","giro":"minisuper","scian":"462112","personalOcupado":"6 a 10 personas","direccion":"AVENIDA DOLORES HIDALGO MZ 152 LT 3","colonia":"SAN FELIPE DE JESUS","codigoPostal":"07510","alcaldia":"Gustavo A. Madero","lat":19.49212023,"lng":-99.07444307,"fechaAlta":"2010-07"}},{"type":"Feature","geometry":{"type":"Point","coordinates":[-99.08118034,19.33468679]},"properties":{"id":"822329","nombre":"MINIMAX SAN JUAN","giro":"minisuper","scian":"462112","personalOcupado":"6 a 10 personas","direccion":"CALLE NAUTLA 77","colonia":"SAN JUAN XALPA","codigoPostal":"09850","alcaldia":"Iztapalapa","lat":19.33468679,"lng":-99.08118034,"fechaAlta":"2010-07"}},{"type":"Feature","geometry":{"type":"Point","coordinates":[-99.26256214,19.31144341]},"properties":{"id":"930227","nombre":"MINISUPER 3B","giro":"minisuper","scian":"462112","personalOcupado":"6 a 10 personas","direccion":"CALLE FRESNO 1","colonia":"LOMAS DE SAN BERNAB","codigoPostal":"10350","alcaldia":"La Magdalena Contreras","lat":19.31144341,"lng":-99.26256214,"fechaAlta":"2014-12"}},{"type":"Feature","geometry":{"type":"Point","coordinates":[-99.14845195,19.50013717]},"properties":{"id":"6325534","nombre":"OXXO SUC 50WDF CIEN METROS MEX","giro":"minisuper","scian":"462112","personalOcupado":"6 a 10 personas","direccion":"EJE VIAL CENTRAL LZARO CRDENAS 795","colonia":"NUEVA INDUSTRIAL VALLEJO","codigoPostal":"07700","alcaldia":"Gustavo A. Madero","lat":19.50013717,"lng":-99.14845195,"fechaAlta":"2010-07"}},{"type":"Feature","geometry":{"type":"Point","coordinates":[-99.12139778,19.28982779]},"properties":{"id":"9133832","nombre":"MINI MAX GARITA","giro":"minisuper","scian":"462112","personalOcupado":"6 a 10 personas","direccion":"AVENIDA LA GARITA 157","colonia":"RESIDENCIAL VILLA COAPA","codigoPostal":"14390","alcaldia":"Tlalpan","lat":19.28982779,"lng":-99.12139778,"fechaAlta":"2019-11"}},{"type":"Feature","geometry":{"type":"Point","coordinates":[-99.14341742,19.41787287]},"properties":{"id":"6316921","nombre":"OXXO SUC 50EHN CHAVERO MEX","giro":"minisuper","scian":"462112","personalOcupado":"6 a 10 personas","direccion":"CALLE ALFREDO CHAVERO 6","colonia":"OBRERA","codigoPostal":"06800","alcaldia":"Cuauhtémoc","lat":19.41787287,"lng":-99.14341742,"fechaAlta":"2010-07"}},{"type":"Feature","geometry":{"type":"Point","coordinates":[-99.21404296000001,19.37511638]},"properties":{"id":"9450823","nombre":"OXXO SUC 50W5N MANUEL DE HERRERA MEX","giro":"minisuper","scian":"462112","personalOcupado":"6 a 10 personas","direccion":"CALLE J MANUEL DE HERRERA LT 14A, MZA 65","colonia":"PALMAS","codigoPostal":"01110","alcaldia":"Álvaro Obregón","lat":19.37511638,"lng":-99.21404296000001,"fechaAlta":"2024-05"}},{"type":"Feature","geometry":{"type":"Point","coordinates":[-99.05832471000001,19.4175995]},"properties":{"id":"804911","nombre":"MINI SUPER LAGUNA ENCANTADA","giro":"minisuper","scian":"462112","personalOcupado":"6 a 10 personas","direccion":"CALLE 6 373","colonia":"AGRCOLA PANTITLAN","codigoPostal":"08100","alcaldia":"Iztacalco","lat":19.4175995,"lng":-99.05832471000001,"fechaAlta":"2010-07"}},{"type":"Feature","geometry":{"type":"Point","coordinates":[-99.10738987000002,19.33756665]},"properties":{"id":"6307163","nombre":"653516 NETO CULHUACAN","giro":"minisuper","scian":"462112","personalOcupado":"6 a 10 personas","direccion":"CALLE ITURBIDE 30","colonia":"SAN ANTONIO CULHUACAN","codigoPostal":"09800","alcaldia":"Iztapalapa","lat":19.33756665,"lng":-99.10738987000002,"fechaAlta":"2013-07"}},{"type":"Feature","geometry":{"type":"Point","coordinates":[-99.11875333,19.29006431]},"properties":{"id":"6316797","nombre":"OXXO SUC 50EIF MAPLE MEX","giro":"minisuper","scian":"462112","personalOcupado":"6 a 10 personas","direccion":"CALZADA ACOXPA 891","colonia":"RESIDENCIAL VILLA COAPA","codigoPostal":"14390","alcaldia":"Tlalpan","lat":19.29006431,"lng":-99.11875333,"fechaAlta":"2014-12"}},{"type":"Feature","geometry":{"type":"Point","coordinates":[-99.20739835000002,19.45751965]},"properties":{"id":"12324563","nombre":"OXXO SUC 50W12 SANCTORUM MEX","giro":"minisuper","scian":"462112","personalOcupado":"0 a 5 personas","direccion":"CALLE RO TLACOTALPAN 57","colonia":"ARGENTINA PONIENTE","codigoPostal":"11230","alcaldia":"Miguel Hidalgo","lat":19.45751965,"lng":-99.20739835000002,"fechaAlta":"2026-04"}},{"type":"Feature","geometry":{"type":"Point","coordinates":[-99.22353564,19.28846234]},"properties":{"id":"849905","nombre":"MIECONOSUPER","giro":"minisuper","scian":"462112","personalOcupado":"11 a 30 personas","direccion":"CALLE HOPELCHN 283","colonia":"HROES DE PADIERNA","codigoPostal":"14200","alcaldia":"Tlalpan","lat":19.28846234,"lng":-99.22353564,"fechaAlta":"2010-07"}},{"type":"Feature","geometry":{"type":"Point","coordinates":[-99.24090638,19.26996747]},"properties":{"id":"6317349","nombre":"653514 NETO ZACATN","giro":"minisuper","scian":"462112","personalOcupado":"6 a 10 personas","direccion":"AVENIDA CAMINO REAL AL ZACATN MZA 1 LOTE 16","colonia":"EL ZACATON","codigoPostal":"14734","alcaldia":"Tlalpan","lat":19.26996747,"lng":-99.24090638,"fechaAlta":"2013-07"}},{"type":"Feature","geometry":{"type":"Point","coordinates":[-99.16370234,19.41589949]},"properties":{"id":"6305784","nombre":"OXXO SUC 50EFV GUANAJUATO II MEX","giro":"minisuper","scian":"462112","personalOcupado":"6 a 10 personas","direccion":"CALLE GUANAJUATO 202","colonia":"ROMA NORTE","codigoPostal":"06700","alcaldia":"Cuauhtémoc","lat":19.41589949,"lng":-99.16370234,"fechaAlta":"2010-07"}},{"type":"Feature","geometry":{"type":"Point","coordinates":[-99.18008031,19.41399291]},"properties":{"id":"6325102","nombre":"OXXO SUC 50VZU VICENTE SUAREZ MEX","giro":"minisuper","scian":"462112","personalOcupado":"6 a 10 personas","direccion":"CALLE VICENTE SUREZ 53","colonia":"CONDESA","codigoPostal":"06140","alcaldia":"Cuauhtémoc","lat":19.41399291,"lng":-99.18008031,"fechaAlta":"2010-07"}},{"type":"Feature","geometry":{"type":"Point","coordinates":[-98.99607014,19.2320297]},"properties":{"id":"8706655","nombre":"MIMISUPER LOS PIRINEOS","giro":"minisuper","scian":"462112","personalOcupado":"6 a 10 personas","direccion":"CALLE PROSA 86","colonia":"JAIME TORRES BODET","codigoPostal":"13530","alcaldia":"Tláhuac","lat":19.2320297,"lng":-98.99607014,"fechaAlta":"2019-11"}},{"type":"Feature","geometry":{"type":"Point","coordinates":[-99.22746481,19.28320484]},"properties":{"id":"6258538","nombre":"653513 NETO TEKAL","giro":"minisuper","scian":"462112","personalOcupado":"6 a 10 personas","direccion":"CALLE SACALUM 415","colonia":"LOMAS DE PADIERNA","codigoPostal":"14240","alcaldia":"Tlalpan","lat":19.28320484,"lng":-99.22746481,"fechaAlta":"2014-12"}},{"type":"Feature","geometry":{"type":"Point","coordinates":[-99.19915643999998,19.38671379]},"properties":{"id":"9400512","nombre":"OXXO SUC 50EH8 LA VENTA MEX","giro":"minisuper","scian":"462112","personalOcupado":"6 a 10 personas","direccion":"AVENIDA ESCUADRN 201 LT 5 MZ 20","colonia":"PRIMERA VICTORIA","codigoPostal":"01160","alcaldia":"Álvaro Obregón","lat":19.38671379,"lng":-99.19915643999998,"fechaAlta":"2024-05"}},{"type":"Feature","geometry":{"type":"Point","coordinates":[-99.07830507,19.40396251]},"properties":{"id":"6796257","nombre":"OXXO SUC 50VZR RIO PARRAL MEX","giro":"minisuper","scian":"462112","personalOcupado":"6 a 10 personas","direccion":"CALLE ORIENTE 229 69","colonia":"AGRCOLA ORIENTAL","codigoPostal":"08500","alcaldia":"Iztacalco","lat":19.40396251,"lng":-99.07830507,"fechaAlta":"2017-11"}},{"type":"Feature","geometry":{"type":"Point","coordinates":[-99.02090458,19.19632593]},"properties":{"id":"949545","nombre":"MINI SUPER RINOCERONTE","giro":"minisuper","scian":"462112","personalOcupado":"11 a 30 personas","direccion":"AVENIDA NUEVO LEON 39","colonia":"VILLA MILPA ALTA","codigoPostal":"12000","alcaldia":"Milpa Alta","lat":19.19632593,"lng":-99.02090458,"fechaAlta":"2014-12"}},{"type":"Feature","geometry":{"type":"Point","coordinates":[-99.08919592,19.41205165]},"properties":{"id":"6853262","nombre":"OXXO SUC 50W7F MORAZAN 45 MEX","giro":"minisuper","scian":"462112","personalOcupado":"6 a 10 personas","direccion":"AVENIDA GENERAL FRANCISCO MORAZN 218","colonia":"GENERAL IGNACIO ZARAGOZA","codigoPostal":"15000","alcaldia":"Venustiano Carranza","lat":19.41205165,"lng":-99.08919592,"fechaAlta":"2018-11"}},{"type":"Feature","geometry":{"type":"Point","coordinates":[-99.1153189,19.24990461]},"properties":{"id":"941367","nombre":"MINI SUPER XOCHIMART","giro":"minisuper","scian":"462112","personalOcupado":"6 a 10 personas","direccion":"CALLE ACUEDUCTO 693","colonia":"LA CONCHA","codigoPostal":"16210","alcaldia":"Xochimilco","lat":19.24990461,"lng":-99.1153189,"fechaAlta":"2014-12"}},{"type":"Feature","geometry":{"type":"Point","coordinates":[-99.23786619000002,19.27927852]},"properties":{"id":"6850846","nombre":"OXXO SUC 50W78 CONKAL MEX","giro":"minisuper","scian":"462112","personalOcupado":"6 a 10 personas","direccion":"CALLE CONKAL SN","colonia":"PEDREGAL DE SAN NICOLS CUARTA SECCIN","codigoPostal":"14100","alcaldia":"Tlalpan","lat":19.27927852,"lng":-99.23786619000002,"fechaAlta":"2018-11"}},{"type":"Feature","geometry":{"type":"Point","coordinates":[-99.24520847,19.33082714]},"properties":{"id":"1041336","nombre":"MINI SUPER LAS TORRES","giro":"minisuper","scian":"462112","personalOcupado":"6 a 10 personas","direccion":"CALLE JOSE MARIA MORELOS Y PAVON 61","colonia":"TORRES DE POTRERO","codigoPostal":"01840","alcaldia":"Álvaro Obregón","lat":19.33082714,"lng":-99.24520847,"fechaAlta":"2010-07"}},{"type":"Feature","geometry":{"type":"Point","coordinates":[-99.07615888,19.31881179]},"properties":{"id":"6781978","nombre":"OXXO SUC 50EIY MONZON MEX","giro":"minisuper","scian":"462112","personalOcupado":"6 a 10 personas","direccion":"AVENIDA TLAHUAC 1548","colonia":"CERRO DE LA ESTRELLA","codigoPostal":"09860","alcaldia":"Iztapalapa","lat":19.31881179,"lng":-99.07615888,"fechaAlta":"2017-03"}},{"type":"Feature","geometry":{"type":"Point","coordinates":[-99.08269441,19.4380391]},"properties":{"id":"6851194","nombre":"OXXO SUC 50W71 SINALOA II MEX","giro":"minisuper","scian":"462112","personalOcupado":"6 a 10 personas","direccion":"AVENIDA QUETZALCOATL 139","colonia":"PEN DE LOS BAOS","codigoPostal":"15520","alcaldia":"Venustiano Carranza","lat":19.4380391,"lng":-99.08269441,"fechaAlta":"2018-11"}},{"type":"Feature","geometry":{"type":"Point","coordinates":[-99.22346557,19.27693052]},"properties":{"id":"854033","nombre":"MINI SUPER MIXTECA","giro":"minisuper","scian":"462112","personalOcupado":"11 a 30 personas","direccion":"CALLE HECELCHAKAN SN","colonia":"CULTURA MAYA","codigoPostal":"14230","alcaldia":"Tlalpan","lat":19.27693052,"lng":-99.22346557,"fechaAlta":"2010-07"}},{"type":"Feature","geometry":{"type":"Point","coordinates":[-99.19045942,19.43798591]},"properties":{"id":"6325066","nombre":"OXXO SUC 50EJC EJERCITO MEX","giro":"minisuper","scian":"462112","personalOcupado":"6 a 10 personas","direccion":"AVENIDA EJERCITO NACIONAL MEXICANO 505","colonia":"GRANADA","codigoPostal":"11520","alcaldia":"Miguel Hidalgo","lat":19.43798591,"lng":-99.19045942,"fechaAlta":"2010-07"}},{"type":"Feature","geometry":{"type":"Point","coordinates":[-99.12509199000002,19.33331571]},"properties":{"id":"12324567","nombre":"OXXO SUC 50W5P LOCALITO MEX","giro":"minisuper","scian":"462112","personalOcupado":"0 a 5 personas","direccion":"CALLE EJIDO SANTA CATARINA 18","colonia":"SAN FRANCISCO CULHUACAN","codigoPostal":"04470","alcaldia":"Coyoacán","lat":19.33331571,"lng":-99.12509199000002,"fechaAlta":"2026-04"}},{"type":"Feature","geometry":{"type":"Point","coordinates":[-99.10548779,19.48900863]},"properties":{"id":"6762843","nombre":"652988 NETO VICENTE GUERRERO","giro":"minisuper","scian":"462112","personalOcupado":"6 a 10 personas","direccion":"CALLE MARTN CARRERA 129","colonia":"MARTIN CARRERA","codigoPostal":"07070","alcaldia":"Gustavo A. Madero","lat":19.48900863,"lng":-99.10548779,"fechaAlta":"2016-10"}},{"type":"Feature","geometry":{"type":"Point","coordinates":[-99.0569779,19.39892352]},"properties":{"id":"6307168","nombre":"652987 NETO SAN JUAN","giro":"minisuper","scian":"462112","personalOcupado":"6 a 10 personas","direccion":"CALLE GENERAL MANUEL ZEPEDA SN","colonia":"JUAN ESCUTIA","codigoPostal":"09100","alcaldia":"Iztapalapa","lat":19.39892352,"lng":-99.0569779,"fechaAlta":"2013-07"}},{"type":"Feature","geometry":{"type":"Point","coordinates":[-99.19216093,19.3389294]},"properties":{"id":"6781981","nombre":"OXXO SUC 50EJM ALTAMIRANO VALLE MEX","giro":"minisuper","scian":"462112","personalOcupado":"6 a 10 personas","direccion":"AVENIDA REVOLUCIN 1915","colonia":"LORETO","codigoPostal":"01090","alcaldia":"Álvaro Obregón","lat":19.3389294,"lng":-99.19216093,"fechaAlta":"2017-03"}},{"type":"Feature","geometry":{"type":"Point","coordinates":[-99.15946258,19.45122129]},"properties":{"id":"6317724","nombre":"652986 NETO SABINO","giro":"minisuper","scian":"462112","personalOcupado":"6 a 10 personas","direccion":"CALLE SABINO 201","colonia":"SANTA MARIA LA RIVERA","codigoPostal":"03328","alcaldia":"Cuauhtémoc","lat":19.45122129,"lng":-99.15946258,"fechaAlta":"2014-12"}},{"type":"Feature","geometry":{"type":"Point","coordinates":[-99.30044193,19.35641285]},"properties":{"id":"6317339","nombre":"653462 NETO CUAJIMALPA","giro":"minisuper","scian":"462112","personalOcupado":"6 a 10 personas","direccion":"AVENIDA MXICO 79","colonia":"CUAJIMALPA CENTRO","codigoPostal":"05240","alcaldia":"Cuajimalpa de Morelos","lat":19.35641285,"lng":-99.30044193,"fechaAlta":"2013-07"}},{"type":"Feature","geometry":{"type":"Point","coordinates":[-99.16168751,19.41801026]},"properties":{"id":"6319279","nombre":"OXXO SUC 50EKH OBREGON II MEX","giro":"minisuper","scian":"462112","personalOcupado":"6 a 10 personas","direccion":"AVENIDA LVARO OBREGN 153","colonia":"ROMA NORTE","codigoPostal":"06700","alcaldia":"Cuauhtémoc","lat":19.41801026,"lng":-99.16168751,"fechaAlta":"2024-05"}},{"type":"Feature","geometry":{"type":"Point","coordinates":[-99.18526707,19.39779153]},"properties":{"id":"6796454","nombre":"OXXO SUC 50WDX CONQUISTA MEX","giro":"minisuper","scian":"462112","personalOcupado":"6 a 10 personas","direccion":"CIRCUITO INTERIOR AVENIDA REVOLUCION 291","colonia":"TACUBAYA","codigoPostal":"11870","alcaldia":"Miguel Hidalgo","lat":19.39779153,"lng":-99.18526707,"fechaAlta":"2017-11"}},{"type":"Feature","geometry":{"type":"Point","coordinates":[-99.23391219,19.30601101]},"properties":{"id":"8564431","nombre":"MINISUPER CHEDRAUI","giro":"minisuper","scian":"462112","personalOcupado":"11 a 30 personas","direccion":"AVENIDA MEXICO 1348","colonia":"LA GUADALUPE","codigoPostal":"10820","alcaldia":"La Magdalena Contreras","lat":19.30601101,"lng":-99.23391219,"fechaAlta":"2019-11"}},{"type":"Feature","geometry":{"type":"Point","coordinates":[-99.07499462,19.48345925]},"properties":{"id":"6307635","nombre":"653457 NETO REPBLICA","giro":"minisuper","scian":"462112","personalOcupado":"6 a 10 personas","direccion":"CALLE CONSTITUCION DE LA REPUBLICA 142","colonia":"LAS PROVIDENCIAS","codigoPostal":"07550","alcaldia":"Gustavo A. Madero","lat":19.48345925,"lng":-99.07499462,"fechaAlta":"2010-07"}},{"type":"Feature","geometry":{"type":"Point","coordinates":[-99.10630794,19.4812946]},"properties":{"id":"6852360","nombre":"OXXO SUC 50EKI FENIX MEX","giro":"minisuper","scian":"462112","personalOcupado":"6 a 10 personas","direccion":"CALLE GOLONDRINAS 75","colonia":"GRANJAS MODERNAS","codigoPostal":"07460","alcaldia":"Gustavo A. Madero","lat":19.4812946,"lng":-99.10630794,"fechaAlta":"2018-11"}},{"type":"Feature","geometry":{"type":"Point","coordinates":[-99.15923294,19.42555089]},"properties":{"id":"6322843","nombre":"OXXO SUC 50WDQ MARSELLA MEX","giro":"minisuper","scian":"462112","personalOcupado":"6 a 10 personas","direccion":"CALLE MARSELLA 3","colonia":"JUREZ","codigoPostal":"06600","alcaldia":"Cuauhtémoc","lat":19.42555089,"lng":-99.15923294,"fechaAlta":"2010-07"}},{"type":"Feature","geometry":{"type":"Point","coordinates":[-99.23312185999998,19.30761613]},"properties":{"id":"6317712","nombre":"653445 NETO CONTRERAS","giro":"minisuper","scian":"462112","personalOcupado":"6 a 10 personas","direccion":"AVENIDA MXICO 1341","colonia":"LA CRUZ","codigoPostal":"10800","alcaldia":"La Magdalena Contreras","lat":19.30761613,"lng":-99.23312185999998,"fechaAlta":"2014-12"}},{"type":"Feature","geometry":{"type":"Point","coordinates":[-99.17840877,19.46242982]},"properties":{"id":"6314886","nombre":"OXXO SUC 50EJP EGIPTO MEX","giro":"minisuper","scian":"462112","personalOcupado":"6 a 10 personas","direccion":"CALLE NORTE 79-A 52","colonia":"CLAVERA","codigoPostal":"02080","alcaldia":"Azcapotzalco","lat":19.46242982,"lng":-99.17840877,"fechaAlta":"2010-07"}},{"type":"Feature","geometry":{"type":"Point","coordinates":[-99.11425996,19.38170186]},"properties":{"id":"6307651","nombre":"653442 NETO APATLACO","giro":"minisuper","scian":"462112","personalOcupado":"6 a 10 personas","direccion":"AVENIDA APATLACO 293","colonia":"APATLACO","codigoPostal":"09430","alcaldia":"Iztapalapa","lat":19.38170186,"lng":-99.11425996,"fechaAlta":"2014-12"}},{"type":"Feature","geometry":{"type":"Point","coordinates":[-99.14765745,19.42489297]},"properties":{"id":"9444442","nombre":"OXXO SUC 50EK3 GENERAL HERNANDEZ MEX","giro":"minisuper","scian":"462112","personalOcupado":"6 a 10 personas","direccion":"CALLE DOCTOR MIGUEL FRANCISCO JIMNEZ 49","colonia":"DOCTORES","codigoPostal":"06720","alcaldia":"Cuauhtémoc","lat":19.42489297,"lng":-99.14765745,"fechaAlta":"2024-05"}},{"type":"Feature","geometry":{"type":"Point","coordinates":[-99.14417956,19.4240528]},"properties":{"id":"6305195","nombre":"OXXO SUC 50VZA VALENZUELA MEX","giro":"minisuper","scian":"462112","personalOcupado":"0 a 5 personas","direccion":"CALLE DOCTOR VALENZUELA 36","colonia":"DOCTORES","codigoPostal":"06720","alcaldia":"Cuauhtémoc","lat":19.4240528,"lng":-99.14417956,"fechaAlta":"2010-07"}},{"type":"Feature","geometry":{"type":"Point","coordinates":[-99.13410435,19.43969909]},"properties":{"id":"6850528","nombre":"OXXO SUC 50VZ9 COLISEO MEX","giro":"minisuper","scian":"462112","personalOcupado":"6 a 10 personas","direccion":"CALLE REPBLICA DE PER 87","colonia":"CENTRO","codigoPostal":"06010","alcaldia":"Cuauhtémoc","lat":19.43969909,"lng":-99.13410435,"fechaAlta":"2018-11"}},{"type":"Feature","geometry":{"type":"Point","coordinates":[-99.1248362,19.47727937]},"properties":{"id":"6784111","nombre":"652984 NETO INDUSTRIAL","giro":"minisuper","scian":"462112","personalOcupado":"6 a 10 personas","direccion":"CALLE CONSTANCIA 90","colonia":"INDUSTRIAL","codigoPostal":"07800","alcaldia":"Gustavo A. Madero","lat":19.47727937,"lng":-99.1248362,"fechaAlta":"2017-03"}},{"type":"Feature","geometry":{"type":"Point","coordinates":[-99.14254270999999,19.36249628]},"properties":{"id":"6316864","nombre":"OXXO SUC 50EDA METRO ERMITA NTE MEX","giro":"minisuper","scian":"462112","personalOcupado":"6 a 10 personas","direccion":"CALZADA CALZADA DE TLALPAN 1524","colonia":"MIRAVALLE","codigoPostal":"03590","alcaldia":"Benito Juárez","lat":19.36249628,"lng":-99.14254270999999,"fechaAlta":"2014-12"}},{"type":"Feature","geometry":{"type":"Point","coordinates":[-99.23392253,19.30620866]},"properties":{"id":"6781587","nombre":"OXXO SUC 50VWM LA CRUZ MEX","giro":"minisuper","scian":"462112","personalOcupado":"6 a 10 personas","direccion":"CALLE LVARO OBREGN 1385","colonia":"LA CRUZ","codigoPostal":"10800","alcaldia":"La Magdalena Contreras","lat":19.30620866,"lng":-99.23392253,"fechaAlta":"2017-03"}},{"type":"Feature","geometry":{"type":"Point","coordinates":[-99.06254243,19.41277024]},"properties":{"id":"6307173","nombre":"652981 NETO PANTITLAN","giro":"minisuper","scian":"462112","personalOcupado":"6 a 10 personas","direccion":"CALLE 4 248","colonia":"PANTITLAN","codigoPostal":"08100","alcaldia":"Iztacalco","lat":19.41277024,"lng":-99.06254243,"fechaAlta":"2013-07"}},{"type":"Feature","geometry":{"type":"Point","coordinates":[-99.17839015,19.42930688]},"properties":{"id":"6307418","nombre":"OXXO SUC 50EDJ DARWIN II MEX","giro":"minisuper","scian":"462112","personalOcupado":"6 a 10 personas","direccion":"CALLE LEIBNITZ 117","colonia":"ANZURES","codigoPostal":"11590","alcaldia":"Miguel Hidalgo","lat":19.42930688,"lng":-99.17839015,"fechaAlta":"2014-12"}},{"type":"Feature","geometry":{"type":"Point","coordinates":[-99.06711563,19.46518114]},"properties":{"id":"6797545","nombre":"OXXO SUC 50VVB PUERTO RUBI MEX","giro":"minisuper","scian":"462112","personalOcupado":"6 a 10 personas","direccion":"EJE VIAL 5 NORTE AVENIDA 412 326","colonia":"SAN JUAN DE ARAGN VI SECCIN","codigoPostal":"07918","alcaldia":"Gustavo A. Madero","lat":19.46518114,"lng":-99.06711563,"fechaAlta":"2017-11"}},{"type":"Feature","geometry":{"type":"Point","coordinates":[-99.10665235,19.39386589]},"properties":{"id":"6307169","nombre":"652980 NETO SUR 115","giro":"minisuper","scian":"462112","personalOcupado":"6 a 10 personas","direccion":"CALLE SUR 115 2219","colonia":"JUVENTINO ROSAS","codigoPostal":"08700","alcaldia":"Iztacalco","lat":19.39386589,"lng":-99.10665235,"fechaAlta":"2013-07"}},{"type":"Feature","geometry":{"type":"Point","coordinates":[-99.16008492,19.31628784]},"properties":{"id":"11772539","nombre":"OXXO SUC 50EBW REY HUEMAN MEX","giro":"minisuper","scian":"462112","personalOcupado":"6 a 10 personas","direccion":"CALLE CORAS LOT 32 M54","colonia":"AJUSCO","codigoPostal":"04300","alcaldia":"Coyoacán","lat":19.31628784,"lng":-99.16008492,"fechaAlta":"2025-04"}},{"type":"Feature","geometry":{"type":"Point","coordinates":[-99.14601399,19.43346641]},"properties":{"id":"6847084","nombre":"OXXO SUC 50VV5 AZUETA MEX","giro":"minisuper","scian":"462112","personalOcupado":"6 a 10 personas","direccion":"CALLE INDEPENDENCIA 7072","colonia":"CENTRO","codigoPostal":"06050","alcaldia":"Cuauhtémoc","lat":19.43346641,"lng":-99.14601399,"fechaAlta":"2018-03"}},{"type":"Feature","geometry":{"type":"Point","coordinates":[-99.05354587,19.29715591]},"properties":{"id":"6318496","nombre":"652979 NETO GALLO DE ORO","giro":"minisuper","scian":"462112","personalOcupado":"6 a 10 personas","direccion":"CALLE GALLO DE ORO SN","colonia":"NOPALERA","codigoPostal":"13220","alcaldia":"Tláhuac","lat":19.29715591,"lng":-99.05354587,"fechaAlta":"2010-07"}},{"type":"Feature","geometry":{"type":"Point","coordinates":[-99.1879942,19.3456021]},"properties":{"id":"6322858","nombre":"OXXO SUC 50EBY CHIMALISTAC MEX","giro":"minisuper","scian":"462112","personalOcupado":"6 a 10 personas","direccion":"AVENIDA INSURGENTES SUR 2110","colonia":"CHIMALISTAC","codigoPostal":"01070","alcaldia":"Álvaro Obregón","lat":19.3456021,"lng":-99.1879942,"fechaAlta":"2014-12"}},{"type":"Feature","geometry":{"type":"Point","coordinates":[-99.08300124,19.47628361]},"properties":{"id":"6722038","nombre":"OXXO SUC 50VUX PUERTO PROGRESO MEX","giro":"minisuper","scian":"462112","personalOcupado":"6 a 10 personas","direccion":"CALLE PUERTO TAMPICO 58","colonia":"AMPLIACIN CASAS ALEMN","codigoPostal":"07580","alcaldia":"Gustavo A. Madero","lat":19.47628361,"lng":-99.08300124,"fechaAlta":"2016-01"}},{"type":"Feature","geometry":{"type":"Point","coordinates":[-99.11303283,19.31577903]},"properties":{"id":"6323917","nombre":"OXXO SUC 50EDX CEDROS MEX","giro":"minisuper","scian":"462112","personalOcupado":"6 a 10 personas","direccion":"ANDADOR PIRMIDE DEL SOL 22","colonia":"LOS CEDROS","codigoPostal":"04800","alcaldia":"Coyoacán","lat":19.31577903,"lng":-99.11303283,"fechaAlta":"2010-07"}},{"type":"Feature","geometry":{"type":"Point","coordinates":[-99.12798318,19.42651691]},"properties":{"id":"9459470","nombre":"OXXO SUC 50VY8 AGUILITA MEX","giro":"minisuper","scian":"462112","personalOcupado":"6 a 10 personas","direccion":"CALLE TOPACIO 5","colonia":"CENTRO","codigoPostal":"06090","alcaldia":"Cuauhtémoc","lat":19.42651691,"lng":-99.12798318,"fechaAlta":"2024-05"}},{"type":"Feature","geometry":{"type":"Point","coordinates":[-99.01827128,19.33484409]},"properties":{"id":"6851193","nombre":"OXXO SUC 50VY3 PUEBLO XALPA MEX","giro":"minisuper","scian":"462112","personalOcupado":"6 a 10 personas","direccion":"AVENIDA AVENIDA DE LAS MINAS 78","colonia":"XALPA","codigoPostal":"09640","alcaldia":"Iztapalapa","lat":19.33484409,"lng":-99.01827128,"fechaAlta":"2018-11"}},{"type":"Feature","geometry":{"type":"Point","coordinates":[-99.13453753,19.3932859]},"properties":{"id":"6796392","nombre":"OXXO SUC 50EDM NAPOLEON MEX","giro":"minisuper","scian":"462112","personalOcupado":"6 a 10 personas","direccion":"EJE VIAL 4 SUR (NAPOLEN) 157","colonia":"MODERNA","codigoPostal":"03510","alcaldia":"Benito Juárez","lat":19.3932859,"lng":-99.13453753,"fechaAlta":"2017-11"}},{"type":"Feature","geometry":{"type":"Point","coordinates":[-99.21854682,19.45281775]},"properties":{"id":"6780882","nombre":"OXXO SUC 50VXP GAONA MEX","giro":"minisuper","scian":"462112","personalOcupado":"0 a 5 personas","direccion":"AVENIDA RODOLFO GAONA 1","colonia":"LOMAS DE SOTELO","codigoPostal":"53390","alcaldia":"Miguel Hidalgo","lat":19.45281775,"lng":-99.21854682,"fechaAlta":"2017-03"}},{"type":"Feature","geometry":{"type":"Point","coordinates":[-99.13768977,19.43820969]},"properties":{"id":"6325542","nombre":"OXXO SUC 50EDN ALLENDE MEX","giro":"minisuper","scian":"462112","personalOcupado":"6 a 10 personas","direccion":"CALLE ALLENDE 30","colonia":"CENTRO","codigoPostal":"06010","alcaldia":"Cuauhtémoc","lat":19.43820969,"lng":-99.13768977,"fechaAlta":"2010-07"}},{"type":"Feature","geometry":{"type":"Point","coordinates":[-99.16670739,19.27990541]},"properties":{"id":"6854763","nombre":"OXXO SUC 50VXD CAMINERO MEX","giro":"minisuper","scian":"462112","personalOcupado":"6 a 10 personas","direccion":"CALZADA CALZADA DE TLALPAN 5063","colonia":"TLALPAN CENTRO","codigoPostal":"14000","alcaldia":"Tlalpan","lat":19.27990541,"lng":-99.16670739,"fechaAlta":"2020-04"}},{"type":"Feature","geometry":{"type":"Point","coordinates":[-99.21165409,19.38932436]},"properties":{"id":"6317366","nombre":"652974 NETO AUSTRIACOS","giro":"minisuper","scian":"462112","personalOcupado":"6 a 10 personas","direccion":"CALLE AUSTRACOS 8","colonia":"EL PARAISO","codigoPostal":"01130","alcaldia":"Álvaro Obregón","lat":19.38932436,"lng":-99.21165409,"fechaAlta":"2013-07"}},{"type":"Feature","geometry":{"type":"Point","coordinates":[-99.2606062,19.32451821]},"properties":{"id":"6317361","nombre":"652973 NETO LOMAS DE LA HERA","giro":"minisuper","scian":"462112","personalOcupado":"6 a 10 personas","direccion":"AVENIDA 29 DE OCTUBRE MZ 211 LOTE 15","colonia":"LOMAS DE LA ERA","codigoPostal":"01860","alcaldia":"Álvaro Obregón","lat":19.32451821,"lng":-99.2606062,"fechaAlta":"2013-07"}},{"type":"Feature","geometry":{"type":"Point","coordinates":[-99.25643054,19.31670924]},"properties":{"id":"6784168","nombre":"652978 NETO SAN BERNABE","giro":"minisuper","scian":"462112","personalOcupado":"6 a 10 personas","direccion":"CALLE SAN BERNABE 2830","colonia":"SAN BERNABE OCOTEPEC","codigoPostal":"10300","alcaldia":"La Magdalena Contreras","lat":19.31670924,"lng":-99.25643054,"fechaAlta":"2017-03"}},{"type":"Feature","geometry":{"type":"Point","coordinates":[-99.18271111,19.48411967]},"properties":{"id":"6316324","nombre":"OXXO SUC 50EFG 22 DE FEBRERO MEX","giro":"minisuper","scian":"462112","personalOcupado":"6 a 10 personas","direccion":"AVENIDA 22 DE FEBRERO 345","colonia":"LOS REYES","codigoPostal":"02010","alcaldia":"Azcapotzalco","lat":19.48411967,"lng":-99.18271111,"fechaAlta":"2010-07"}},{"type":"Feature","geometry":{"type":"Point","coordinates":[-99.10973214,19.30298274]},"properties":{"id":"6796453","nombre":"OXXO SUC 50VZE VALLE ANAHUAC MEX","giro":"minisuper","scian":"462112","personalOcupado":"6 a 10 personas","direccion":"CALLE ANHUAC 101","colonia":"EL MIRADOR","codigoPostal":"04950","alcaldia":"Coyoacán","lat":19.30298274,"lng":-99.10973214,"fechaAlta":"2017-11"}},{"type":"Feature","geometry":{"type":"Point","coordinates":[-99.17924711999999,19.49458407]},"properties":{"id":"9422024","nombre":"652977 NETO AV. HIDALGO","giro":"minisuper","scian":"462112","personalOcupado":"6 a 10 personas","direccion":"AVENIDA HIDALGO 71","colonia":"SAN ANDRES","codigoPostal":"02240","alcaldia":"Azcapotzalco","lat":19.49458407,"lng":-99.17924711999999,"fechaAlta":"2023-11"}},{"type":"Feature","geometry":{"type":"Point","coordinates":[-99.19937066,19.37278512]},"properties":{"id":"6316763","nombre":"OXXO SUC 50EFH ROSA BLANCA MEX","giro":"minisuper","scian":"462112","personalOcupado":"6 a 10 personas","direccion":"CALLE ROSA BLANCA SN","colonia":"MOLINO DE ROSAS","codigoPostal":"01470","alcaldia":"Álvaro Obregón","lat":19.37278512,"lng":-99.19937066,"fechaAlta":"2010-07"}},{"type":"Feature","geometry":{"type":"Point","coordinates":[-99.01535197,19.29552207]},"properties":{"id":"6317345","nombre":"652976 NETO TLALTENCO","giro":"minisuper","scian":"462112","personalOcupado":"6 a 10 personas","direccion":"CALLE CARLOS A VIDAL ESQUINA PLAN DE AYUTLA 285","colonia":"GUADALUPE TLALTENCO","codigoPostal":"13400","alcaldia":"Tláhuac","lat":19.29552207,"lng":-99.01535197,"fechaAlta":"2013-07"}},{"type":"Feature","geometry":{"type":"Point","coordinates":[-99.06426095,19.33510119]},"properties":{"id":"6781977","nombre":"OXXO SUC 50EEA TOLENTINO MEX","giro":"minisuper","scian":"462112","personalOcupado":"6 a 10 personas","direccion":"CALLE MANUEL LEAL 89","colonia":"SAN JUAN JOYA","codigoPostal":"09839","alcaldia":"Iztapalapa","lat":19.33510119,"lng":-99.06426095,"fechaAlta":"2017-03"}},{"type":"Feature","geometry":{"type":"Point","coordinates":[-99.18447232,19.49784537]},"properties":{"id":"634893","nombre":"652975 NETO SAN PABLO XALPA","giro":"minisuper","scian":"462112","personalOcupado":"6 a 10 personas","direccion":"AVENIDA SAN PABLO XALPA 77","colonia":"SANTA BARBARA","codigoPostal":"02230","alcaldia":"Azcapotzalco","lat":19.49784537,"lng":-99.18447232,"fechaAlta":"2010-07"}},{"type":"Feature","geometry":{"type":"Point","coordinates":[-99.09948826,19.32372377]},"properties":{"id":"9419735","nombre":"OXXO SUC 50EF7 FRESNOS TLAHUACC CUE","giro":"minisuper","scian":"462112","personalOcupado":"6 a 10 personas","direccion":"CALLE CALLE PROSPERO MZ 3 LT 56","colonia":"SANTA MARA TOMATLAN","codigoPostal":"09870","alcaldia":"Iztapalapa","lat":19.32372377,"lng":-99.09948826,"fechaAlta":"2024-05"}},{"type":"Feature","geometry":{"type":"Point","coordinates":[-99.17619468999999,19.42776508]},"properties":{"id":"6305884","nombre":"OXXO SUC 50VUU DESCARTES MEX","giro":"minisuper","scian":"462112","personalOcupado":"6 a 10 personas","direccion":"CALLE VCTOR HUGO 30","colonia":"ANZURES","codigoPostal":"11590","alcaldia":"Miguel Hidalgo","lat":19.42776508,"lng":-99.17619468999999,"fechaAlta":"2014-12"}},{"type":"Feature","geometry":{"type":"Point","coordinates":[-99.0113538,19.34824887]},"properties":{"id":"6796363","nombre":"OXXO SUC 50VTE ACAHUALTEPEC MEX","giro":"minisuper","scian":"462112","personalOcupado":"6 a 10 personas","direccion":"CALLE OCTAVIO SENTIES SN","colonia":"SANTIAGO ACAHUALTEPEC SEGUNDA AMPLIACIN","codigoPostal":"07183","alcaldia":"Iztapalapa","lat":19.34824887,"lng":-99.0113538,"fechaAlta":"2017-11"}},{"type":"Feature","geometry":{"type":"Point","coordinates":[-99.30037934,19.35405408]},"properties":{"id":"6316724","nombre":"OXXO SUC 50VQX PASO VERACRUZ MEX","giro":"minisuper","scian":"462112","personalOcupado":"6 a 10 personas","direccion":"AVENIDA VERACRUZ 81","colonia":"CUAJIMALPA","codigoPostal":"05000","alcaldia":"Cuajimalpa de Morelos","lat":19.35405408,"lng":-99.30037934,"fechaAlta":"2011-03"}},{"type":"Feature","geometry":{"type":"Point","coordinates":[-99.1608439,19.26665799]},"properties":{"id":"6317356","nombre":"652877 NETO CEDRAL","giro":"minisuper","scian":"462112","personalOcupado":"6 a 10 personas","direccion":"CALLE CEDRAL MZ 58 LOTE 16","colonia":"SAN PEDRO MARTIR II","codigoPostal":"14650","alcaldia":"Tlalpan","lat":19.26665799,"lng":-99.1608439,"fechaAlta":"2013-07"}},{"type":"Feature","geometry":{"type":"Point","coordinates":[-99.1394366,19.47713925]},"properties":{"id":"9415993","nombre":"OXXO SUC 50E7X CENTRAL DEL NORTE MEX","giro":"minisuper","scian":"462112","personalOcupado":"6 a 10 personas","direccion":"AVENIDA EJE CENTRAL LAZARO CARDENAS SN","colonia":"MAXIMINO VILA CAMACHO","codigoPostal":"07380","alcaldia":"Gustavo A. Madero","lat":19.47713925,"lng":-99.1394366,"fechaAlta":"2024-05"}},{"type":"Feature","geometry":{"type":"Point","coordinates":[-99.07990697,19.47581822]},"properties":{"id":"6305796","nombre":"OXXO SUC 50VOU CASAS ALEMAN MEX","giro":"minisuper","scian":"462112","personalOcupado":"6 a 10 personas","direccion":"CALLE PUERTO CAMPECHE 61","colonia":"AMPLIACIN CASAS ALEMN","codigoPostal":"07580","alcaldia":"Gustavo A. Madero","lat":19.47581822,"lng":-99.07990697,"fechaAlta":"2010-07"}},{"type":"Feature","geometry":{"type":"Point","coordinates":[-99.07162178,19.48544053]},"properties":{"id":"6717893","nombre":"TIENDAS TRES B","giro":"minisuper","scian":"462112","personalOcupado":"6 a 10 personas","direccion":"CALLE ESTADO DE OAXACA 204","colonia":"PROVIDENCIA","codigoPostal":"07550","alcaldia":"Gustavo A. Madero","lat":19.48544053,"lng":-99.07162178,"fechaAlta":"2016-01"}},{"type":"Feature","geometry":{"type":"Point","coordinates":[-99.04706934,19.29277594]},"properties":{"id":"6317359","nombre":"652873 NETO ERNANI","giro":"minisuper","scian":"462112","personalOcupado":"6 a 10 personas","direccion":"AVENIDA SANTA CRUZ (HERNANI) 50","colonia":"MIGUEL HIDALGO","codigoPostal":"13200","alcaldia":"Tláhuac","lat":19.29277594,"lng":-99.04706934,"fechaAlta":"2013-07"}},{"type":"Feature","geometry":{"type":"Point","coordinates":[-99.10427963,19.41510354]},"properties":{"id":"9413765","nombre":"OXXO SUC 50E9A IGLESIAS MEX","giro":"minisuper","scian":"462112","personalOcupado":"6 a 10 personas","direccion":"CALLE GENARO GARCIA 172","colonia":"JARDN BALBUENA","codigoPostal":"15900","alcaldia":"Venustiano Carranza","lat":19.41510354,"lng":-99.10427963,"fechaAlta":"2024-05"}},{"type":"Feature","geometry":{"type":"Point","coordinates":[-99.11544622,19.46695305]},"properties":{"id":"6305799","nombre":"OXXO SUC 50VOQ CONG DE LA UNION MEX","giro":"minisuper","scian":"462112","personalOcupado":"6 a 10 personas","direccion":"AVENIDA VICTORIA ORIENTE 3101","colonia":"LA JOYITA","codigoPostal":"07860","alcaldia":"Gustavo A. Madero","lat":19.46695305,"lng":-99.11544622,"fechaAlta":"2010-07"}},{"type":"Feature","geometry":{"type":"Point","coordinates":[-99.16574844,19.43819033]},"properties":{"id":"9406850","nombre":"TIENDAS TRES B","giro":"minisuper","scian":"462112","personalOcupado":"6 a 10 personas","direccion":"CALLE GUILLERMO PRIETO 99","colonia":"SAN RAFAEL","codigoPostal":"06470","alcaldia":"Cuauhtémoc","lat":19.43819033,"lng":-99.16574844,"fechaAlta":"2023-11"}},{"type":"Feature","geometry":{"type":"Point","coordinates":[-99.12126842,19.43363049]},"properties":{"id":"6307183","nombre":"652872 NETO FERROCARRIL","giro":"minisuper","scian":"462112","personalOcupado":"6 a 10 personas","direccion":"CALLE MIGUEL NEGRETE 44","colonia":"CENTRO","codigoPostal":"15100","alcaldia":"Venustiano Carranza","lat":19.43363049,"lng":-99.12126842,"fechaAlta":"2013-07"}},{"type":"Feature","geometry":{"type":"Point","coordinates":[-99.11893476,19.45087739]},"properties":{"id":"12321899","nombre":"OXXO SUC 50E4S POTASIO MEX","giro":"minisuper","scian":"462112","personalOcupado":"0 a 5 personas","direccion":"CALLE GUANACEVI 1","colonia":"POPULAR RASTRO","codigoPostal":"15220","alcaldia":"Venustiano Carranza","lat":19.45087739,"lng":-99.11893476,"fechaAlta":"2026-04"}},{"type":"Feature","geometry":{"type":"Point","coordinates":[-99.11090572,19.41474108]},"properties":{"id":"6305932","nombre":"OXXO SUC 50VOF NICOLAS LEON MEX","giro":"minisuper","scian":"462112","personalOcupado":"6 a 10 personas","direccion":"CALLE NICOLAS LEON 174","colonia":"JARDN BALBUENA","codigoPostal":"15900","alcaldia":"Venustiano Carranza","lat":19.41474108,"lng":-99.11090572,"fechaAlta":"2014-12"}},{"type":"Feature","geometry":{"type":"Point","coordinates":[-99.0381612,19.38953644]},"properties":{"id":"6307964","nombre":"TIENDAS TRES B","giro":"minisuper","scian":"462112","personalOcupado":"6 a 10 personas","direccion":"CALLE GENERAL FRANCISCO LEYVA 67","colonia":"JUAN ESCUTIA","codigoPostal":"09100","alcaldia":"Iztapalapa","lat":19.38953644,"lng":-99.0381612,"fechaAlta":"2010-07"}},{"type":"Feature","geometry":{"type":"Point","coordinates":[-99.03254437,19.33610226]},"properties":{"id":"6307161","nombre":"652871 NETO REFORMA POLITICA","giro":"minisuper","scian":"462112","personalOcupado":"6 a 10 personas","direccion":"CALLE REFORMA POLTICA LOTE 39 MANZANA 56","colonia":"SANTA MARIA AZTAHUACAN","codigoPostal":"09500","alcaldia":"Iztapalapa","lat":19.33610226,"lng":-99.03254437,"fechaAlta":"2013-07"}},{"type":"Feature","geometry":{"type":"Point","coordinates":[-99.03054645,19.36005881]},"properties":{"id":"12323093","nombre":"OXXO SUC 50E64 EJE GUELATAO CUE","giro":"minisuper","scian":"462112","personalOcupado":"6 a 10 personas","direccion":"AVENIDA 6 SUR (AVENIDA DE LAS TORRES) MZ 9 LT 1","colonia":"SANTA MARA AZTAHUACAN","codigoPostal":"09500","alcaldia":"Iztapalapa","lat":19.36005881,"lng":-99.03054645,"fechaAlta":"2026-04"}},{"type":"Feature","geometry":{"type":"Point","coordinates":[-99.13998887,19.43892122]},"properties":{"id":"9469511","nombre":"TIENDAS TRES B","giro":"minisuper","scian":"462112","personalOcupado":"6 a 10 personas","direccion":"EJE VIAL CENTRAL (LZARO CRDENAS) 31","colonia":"CENTRO","codigoPostal":"06010","alcaldia":"Cuauhtémoc","lat":19.43892122,"lng":-99.13998887,"fechaAlta":"2023-11"}},{"type":"Feature","geometry":{"type":"Point","coordinates":[-99.12833375,19.42932441]},"properties":{"id":"6305788","nombre":"OXXO SUC 50EAI JESUS MARIA MEX","giro":"minisuper","scian":"462112","personalOcupado":"6 a 10 personas","direccion":"CALLE REPBLICA DE URUGUAY SN","colonia":"CENTRO","codigoPostal":"06060","alcaldia":"Cuauhtémoc","lat":19.42932441,"lng":-99.12833375,"fechaAlta":"2010-07"}},{"type":"Feature","geometry":{"type":"Point","coordinates":[-99.17199885,19.27545396]},"properties":{"id":"6316802","nombre":"OXXO SUC 50VPJ TLALCOLIGIA MEX","giro":"minisuper","scian":"462112","personalOcupado":"6 a 10 personas","direccion":"CALLE TEPEHUANOS 128","colonia":"TLALCOLIGIA","codigoPostal":"14430","alcaldia":"Tlalpan","lat":19.27545396,"lng":-99.17199885,"fechaAlta":"2010-07"}},{"type":"Feature","geometry":{"type":"Point","coordinates":[-99.2229201,19.32040152]},"properties":{"id":"6322869","nombre":"OXXO SUC 50EAJ CABRERA MEX","giro":"minisuper","scian":"462112","personalOcupado":"6 a 10 personas","direccion":"CALLE ORIZABA 727","colonia":"SAN JERNIMO ACULCO","codigoPostal":"10400","alcaldia":"La Magdalena Contreras","lat":19.32040152,"lng":-99.2229201,"fechaAlta":"2014-12"}},{"type":"Feature","geometry":{"type":"Point","coordinates":[-99.01861489,19.29234265]},"properties":{"id":"9395945","nombre":"OXXO SUC 50VP6 MAXIMINO LUGO MEX","giro":"minisuper","scian":"462112","personalOcupado":"6 a 10 personas","direccion":"AVENIDA FERROCARRIL SAN RAFAEL ATLIXCO 19","colonia":"ZACATENCO","codigoPostal":"13440","alcaldia":"Tláhuac","lat":19.29234265,"lng":-99.01861489,"fechaAlta":"2024-05"}},{"type":"Feature","geometry":{"type":"Point","coordinates":[-99.16935693,19.42981319]},"properties":{"id":"9393986","nombre":"TIENDAS TRES B","giro":"minisuper","scian":"462112","personalOcupado":"6 a 10 personas","direccion":"CALLE RO PNUCO 147","colonia":"CUAUHTMOC","codigoPostal":"06500","alcaldia":"Cuauhtémoc","lat":19.42981319,"lng":-99.16935693,"fechaAlta":"2023-11"}},{"type":"Feature","geometry":{"type":"Point","coordinates":[-99.19619767,19.48191969]},"properties":{"id":"12321900","nombre":"OXXO SUC 50E9J PETROLEOS MEXICANOS MEX","giro":"minisuper","scian":"462112","personalOcupado":"0 a 5 personas","direccion":"CALLE PETROLEOS MEXICANOS 2","colonia":"PETROLERA","codigoPostal":"02470","alcaldia":"Azcapotzalco","lat":19.48191969,"lng":-99.19619767,"fechaAlta":"2026-04"}},{"type":"Feature","geometry":{"type":"Point","coordinates":[-99.17080003999999,19.39929626]},"properties":{"id":"6317638","nombre":"OXXO SUC 50VOX ALEMAN MEX","giro":"minisuper","scian":"462112","personalOcupado":"6 a 10 personas","direccion":"AVENIDA INSURGENTES SUR (MOSQUETA) 559","colonia":"NPOLES","codigoPostal":"03810","alcaldia":"Benito Juárez","lat":19.39929626,"lng":-99.17080003999999,"fechaAlta":"2010-07"}},{"type":"Feature","geometry":{"type":"Point","coordinates":[-99.06504469,19.37662223]},"properties":{"id":"9477774","nombre":"TIENDAS TRES B","giro":"minisuper","scian":"462112","personalOcupado":"6 a 10 personas","direccion":"AVENIDA LEYES DE REFORMA SN","colonia":"LEYES DE REFORMA TERCERA SECCIN","codigoPostal":"09310","alcaldia":"Iztapalapa","lat":19.37662223,"lng":-99.06504469,"fechaAlta":"2024-05"}},{"type":"Feature","geometry":{"type":"Point","coordinates":[-99.07980791,19.49464898]},"properties":{"id":"6308182","nombre":"652971 NETO 25 DE JULIO","giro":"minisuper","scian":"462112","personalOcupado":"6 a 10 personas","direccion":"CALLE EJIDO 104","colonia":"25 DE JULIO","codigoPostal":"07520","alcaldia":"Gustavo A. Madero","lat":19.49464898,"lng":-99.07980791,"fechaAlta":"2010-07"}},{"type":"Feature","geometry":{"type":"Point","coordinates":[-99.17334363,19.43163491]},"properties":{"id":"6325535","nombre":"OXXO SUC 50EAC ANZURES MEX","giro":"minisuper","scian":"462112","personalOcupado":"6 a 10 personas","direccion":"CALLE COPERNICO 13","colonia":"ANZURES","codigoPostal":"11590","alcaldia":"Miguel Hidalgo","lat":19.43163491,"lng":-99.17334363,"fechaAlta":"2010-07"}},{"type":"Feature","geometry":{"type":"Point","coordinates":[-99.15409943,19.42245444]},"properties":{"id":"6305791","nombre":"OXXO SUC 50VOW ROMITA MEX","giro":"minisuper","scian":"462112","personalOcupado":"6 a 10 personas","direccion":"CALLE DURANGO 2","colonia":"ROMA NORTE","codigoPostal":"06700","alcaldia":"Cuauhtémoc","lat":19.42245444,"lng":-99.15409943,"fechaAlta":"2010-07"}},{"type":"Feature","geometry":{"type":"Point","coordinates":[-99.16931667,19.42983225]},"properties":{"id":"6710981","nombre":"TIENDAS TRES B","giro":"minisuper","scian":"462112","personalOcupado":"6 a 10 personas","direccion":"CALLE RO PNUCO 77","colonia":"CUAUHTMOC","codigoPostal":"06500","alcaldia":"Cuauhtémoc","lat":19.42983225,"lng":-99.16931667,"fechaAlta":"2016-01"}},{"type":"Feature","geometry":{"type":"Point","coordinates":[-99.19525751,19.44774754]},"properties":{"id":"6307774","nombre":"652796 NETO PENSIL","giro":"minisuper","scian":"462112","personalOcupado":"6 a 10 personas","direccion":"CALLE LAGO ERNE 125","colonia":"PENSIL","codigoPostal":"11490","alcaldia":"Miguel Hidalgo","lat":19.44774754,"lng":-99.19525751,"fechaAlta":"2010-07"}},{"type":"Feature","geometry":{"type":"Point","coordinates":[-99.17421943000001,19.44238738]},"properties":{"id":"6307185","nombre":"652802 NETO LAGUNA DE TERMINOS","giro":"minisuper","scian":"462112","personalOcupado":"6 a 10 personas","direccion":"CALLE LAGO CUITZEO 202","colonia":"ANAHUAC","codigoPostal":"11320","alcaldia":"Miguel Hidalgo","lat":19.44238738,"lng":-99.17421943000001,"fechaAlta":"2013-07"}},{"type":"Feature","geometry":{"type":"Point","coordinates":[-99.13833506,19.2977778]},"properties":{"id":"6325539","nombre":"OXXO SUC 50EBE CLUBES MEX","giro":"minisuper","scian":"462112","personalOcupado":"6 a 10 personas","direccion":"CALZADA ACOXPA 419","colonia":"VILLA LZARO CRDENAS","codigoPostal":"14370","alcaldia":"Tlalpan","lat":19.2977778,"lng":-99.13833506,"fechaAlta":"2010-07"}},{"type":"Feature","geometry":{"type":"Point","coordinates":[-99.28530229,19.37220229]},"properties":{"id":"6317341","nombre":"652801 NETO HECTOR VICTORIA","giro":"minisuper","scian":"462112","personalOcupado":"6 a 10 personas","direccion":"CALLE HCTOR VICTORIA 165","colonia":"NAVIDAD","codigoPostal":"05210","alcaldia":"Cuajimalpa de Morelos","lat":19.37220229,"lng":-99.28530229,"fechaAlta":"2013-07"}},{"type":"Feature","geometry":{"type":"Point","coordinates":[-99.16488999,19.41738002]},"properties":{"id":"6322871","nombre":"OXXO SUC 50EBG OBREGON INSURGENTES MEX","giro":"minisuper","scian":"462112","personalOcupado":"6 a 10 personas","direccion":"AVENIDA INSURGENTES SUR 257","colonia":"ROMA NORTE","codigoPostal":"06700","alcaldia":"Cuauhtémoc","lat":19.41738002,"lng":-99.16488999,"fechaAlta":"2014-12"}},{"type":"Feature","geometry":{"type":"Point","coordinates":[-99.03700693,19.33097737]},"properties":{"id":"6307190","nombre":"652798 NETO VILLA MAYO","giro":"minisuper","scian":"462112","personalOcupado":"6 a 10 personas","direccion":"CALLE VILLA DE MAYO 17","colonia":"DESARROLLO URBANO QUETZALCATL","codigoPostal":"09700","alcaldia":"Iztapalapa","lat":19.33097737,"lng":-99.03700693,"fechaAlta":"2013-07"}},{"type":"Feature","geometry":{"type":"Point","coordinates":[-99.12161215,19.45585591]},"properties":{"id":"693362","nombre":"652797 NETO PLATINO","giro":"minisuper","scian":"462112","personalOcupado":"6 a 10 personas","direccion":"CALLE PLATINO 136","colonia":"VALLE GOMEZ","codigoPostal":"15210","alcaldia":"Venustiano Carranza","lat":19.45585591,"lng":-99.12161215,"fechaAlta":"2014-12"}},{"type":"Feature","geometry":{"type":"Point","coordinates":[-99.11300763,19.34982788]},"properties":{"id":"6305851","nombre":"OXXO SUC 50EAV GANADEROS MEX","giro":"minisuper","scian":"462112","personalOcupado":"6 a 10 personas","direccion":"CALLE GANADEROS 201","colonia":"VALLE DEL SUR","codigoPostal":"09819","alcaldia":"Iztapalapa","lat":19.34982788,"lng":-99.11300763,"fechaAlta":"2014-12"}},{"type":"Feature","geometry":{"type":"Point","coordinates":[-99.13424363,19.49106666]},"properties":{"id":"6316350","nombre":"OXXO SUC 50VNH PZA LINDA VISTA MEX","giro":"minisuper","scian":"462112","personalOcupado":"6 a 10 personas","direccion":"EJE VIAL 5 NORTE MONTEVIDEO 365","colonia":"LINDAVISTA SUR","codigoPostal":"07300","alcaldia":"Gustavo A. Madero","lat":19.49106666,"lng":-99.13424363,"fechaAlta":"2010-07"}},{"type":"Feature","geometry":{"type":"Point","coordinates":[-99.26750088000001,19.3673984]},"properties":{"id":"9392822","nombre":"OXXO SUC 50VN4 PIPER MEX","giro":"minisuper","scian":"462112","personalOcupado":"6 a 10 personas","direccion":"CALLE PROLONGACIN PASEO DE LA REFORMA 115","colonia":"PASEO DE LAS LOMAS","codigoPostal":"01330","alcaldia":"Cuajimalpa de Morelos","lat":19.3673984,"lng":-99.26750088000001,"fechaAlta":"2024-05"}},{"type":"Feature","geometry":{"type":"Point","coordinates":[-99.16697444000002,19.48647877]},"properties":{"id":"12323581","nombre":"OXXO SUC 50E0U ALMACEN SMART MX PTE SMP","giro":"minisuper","scian":"462112","personalOcupado":"6 a 10 personas","direccion":"AVENIDA CEYLAN 923","colonia":"LAS SALINAS","codigoPostal":"02350","alcaldia":"Azcapotzalco","lat":19.48647877,"lng":-99.16697444000002,"fechaAlta":"2026-04"}},{"type":"Feature","geometry":{"type":"Point","coordinates":[-99.07055411,19.37275637]},"properties":{"id":"6305852","nombre":"OXXO SUC 50VML GUERRA DE REFORMA MEX","giro":"minisuper","scian":"462112","personalOcupado":"6 a 10 personas","direccion":"AVENIDA CANAL DEL MORAL 1","colonia":"LEYES DE REFORMA TERCERA SECCIN","codigoPostal":"09310","alcaldia":"Iztapalapa","lat":19.37275637,"lng":-99.07055411,"fechaAlta":"2013-07"}},{"type":"Feature","geometry":{"type":"Point","coordinates":[-99.14285657,19.36382325]},"properties":{"id":"6718157","nombre":"OXXO SUC 50VLP MONTES MEX","giro":"minisuper","scian":"462112","personalOcupado":"6 a 10 personas","direccion":"CALZADA CALZADA DE TLALPAN 1491","colonia":"PORTALES SUR","codigoPostal":"03300","alcaldia":"Benito Juárez","lat":19.36382325,"lng":-99.14285657,"fechaAlta":"2016-01"}},{"type":"Feature","geometry":{"type":"Point","coordinates":[-99.17700594,19.43187256]},"properties":{"id":"6781768","nombre":"OXXO SUC 50DXY SHAKESPEARE MEX","giro":"minisuper","scian":"462112","personalOcupado":"6 a 10 personas","direccion":"CALLE GUTEMBERG 88","colonia":"ANZURES","codigoPostal":"11590","alcaldia":"Miguel Hidalgo","lat":19.43187256,"lng":-99.17700594,"fechaAlta":"2017-03"}},{"type":"Feature","geometry":{"type":"Point","coordinates":[-99.22909166000001,19.31009243]},"properties":{"id":"6316730","nombre":"OXXO SUC 50VJM AV MEXICO MEX","giro":"minisuper","scian":"462112","personalOcupado":"6 a 10 personas","direccion":"AVENIDA MXICO SN","colonia":"SANTA TERESA","codigoPostal":"10820","alcaldia":"La Magdalena Contreras","lat":19.31009243,"lng":-99.22909166000001,"fechaAlta":"2014-12"}},{"type":"Feature","geometry":{"type":"Point","coordinates":[-99.12376986,19.44023897]},"properties":{"id":"9407025","nombre":"TIENDAS TRES B","giro":"minisuper","scian":"462112","personalOcupado":"6 a 10 personas","direccion":"CALLE MANUEL DE LA PEA Y PEA 57","colonia":"CENTRO","codigoPostal":"06020","alcaldia":"Cuauhtémoc","lat":19.44023897,"lng":-99.12376986,"fechaAlta":"2023-11"}},{"type":"Feature","geometry":{"type":"Point","coordinates":[-99.19778623,19.28501675]},"properties":{"id":"9435610","nombre":"OXXO SUC 50DY9 JASSO MEX","giro":"minisuper","scian":"462112","personalOcupado":"6 a 10 personas","direccion":"CALLE JESS LECUONA 106","colonia":"MIGUEL HIDALGO SEGUNDA SECCIN","codigoPostal":"14250","alcaldia":"Tlalpan","lat":19.28501675,"lng":-99.19778623,"fechaAlta":"2024-05"}},{"type":"Feature","geometry":{"type":"Point","coordinates":[-99.22247651,19.31588239]},"properties":{"id":"6316732","nombre":"OXXO SUC 50VJL MEXICO MEX","giro":"minisuper","scian":"462112","personalOcupado":"6 a 10 personas","direccion":"AVENIDA OAXACA 37","colonia":"SAN JERNIMO ACULCO","codigoPostal":"10400","alcaldia":"La Magdalena Contreras","lat":19.31588239,"lng":-99.22247651,"fechaAlta":"2013-07"}},{"type":"Feature","geometry":{"type":"Point","coordinates":[-99.10808157,19.48653146]},"properties":{"id":"9472551","nombre":"TIENDAS TRES B","giro":"minisuper","scian":"462112","personalOcupado":"6 a 10 personas","direccion":"CALLE JOSE JOAQUIN HERRERA 146","colonia":"MARTN CARRERA","codigoPostal":"07070","alcaldia":"Gustavo A. Madero","lat":19.48653146,"lng":-99.10808157,"fechaAlta":"2024-05"}},{"type":"Feature","geometry":{"type":"Point","coordinates":[-99.29754933000001,19.3586171]},"properties":{"id":"6322852","nombre":"OXXO SUC 50DWK CASTILLO LEDON MEX","giro":"minisuper","scian":"462112","personalOcupado":"6 a 10 personas","direccion":"CALLE LICENCIADO CASTILLO LEDN 61","colonia":"SAN PEDRO","codigoPostal":"05000","alcaldia":"Cuajimalpa de Morelos","lat":19.3586171,"lng":-99.29754933000001,"fechaAlta":"2014-12"}},{"type":"Feature","geometry":{"type":"Point","coordinates":[-99.14628523,19.44390258]},"properties":{"id":"9394547","nombre":"TIENDAS TRES B","giro":"minisuper","scian":"462112","personalOcupado":"6 a 10 personas","direccion":"CALLE HROES 100","colonia":"GUERRERO","codigoPostal":"06300","alcaldia":"Cuauhtémoc","lat":19.44390258,"lng":-99.14628523,"fechaAlta":"2023-11"}},{"type":"Feature","geometry":{"type":"Point","coordinates":[-99.13228202,19.32714453]},"properties":{"id":"9413764","nombre":"OXXO SUC 50DX9 RETORNO MEX","giro":"minisuper","scian":"462112","personalOcupado":"6 a 10 personas","direccion":"PRIVADA RETORNO 36 258","colonia":"AVANTE","codigoPostal":"04460","alcaldia":"Coyoacán","lat":19.32714453,"lng":-99.13228202,"fechaAlta":"2024-05"}},{"type":"Feature","geometry":{"type":"Point","coordinates":[-99.05722785,19.39906752]},"properties":{"id":"9413208","nombre":"TIENDAS TRES B","giro":"minisuper","scian":"462112","personalOcupado":"6 a 10 personas","direccion":"CALLE PABLO GARCA 37","colonia":"JUAN ESCUTIA","codigoPostal":"09100","alcaldia":"Iztapalapa","lat":19.39906752,"lng":-99.05722785,"fechaAlta":"2023-11"}},{"type":"Feature","geometry":{"type":"Point","coordinates":[-99.14329376,19.30730536]},"properties":{"id":"6322874","nombre":"OXXO SUC 50DZK EL VERGEL MEX","giro":"minisuper","scian":"462112","personalOcupado":"6 a 10 personas","direccion":"CALZADA CALZADA DE TLALPAN 3281","colonia":"DE SANTA RSULA COAPA","codigoPostal":"04650","alcaldia":"Coyoacán","lat":19.30730536,"lng":-99.14329376,"fechaAlta":"2010-07"}},{"type":"Feature","geometry":{"type":"Point","coordinates":[-99.12717765999999,19.28682849]},"properties":{"id":"6324366","nombre":"OXXO SUC 50VKT VAQUERITOS MEX","giro":"minisuper","scian":"462112","personalOcupado":"6 a 10 personas","direccion":"AVENIDA PROLONGACIN DIVISIN DEL NORTE SN","colonia":"EX-HACIENDA SAN JUAN DE DIOS","codigoPostal":"14380","alcaldia":"Tlalpan","lat":19.28682849,"lng":-99.12717765999999,"fechaAlta":"2010-07"}},{"type":"Feature","geometry":{"type":"Point","coordinates":[-99.1582544,19.44234545]},"properties":{"id":"9458940","nombre":"TIENDAS TRES B","giro":"minisuper","scian":"462112","personalOcupado":"6 a 10 personas","direccion":"CALLE SANTA MARA LA RIBERA 24","colonia":"SANTA MARA LA RIBERA","codigoPostal":"06400","alcaldia":"Cuauhtémoc","lat":19.44234545,"lng":-99.1582544,"fechaAlta":"2023-11"}},{"type":"Feature","geometry":{"type":"Point","coordinates":[-99.1531165,19.44803048]},"properties":{"id":"6316414","nombre":"OXXO SUC 50DZM DIAZ MIRON MEX","giro":"minisuper","scian":"462112","personalOcupado":"6 a 10 personas","direccion":"CALLE SALVADOR DAZ MIRN 14","colonia":"SANTA MARA LA RIBERA","codigoPostal":"06400","alcaldia":"Cuauhtémoc","lat":19.44803048,"lng":-99.1531165,"fechaAlta":"2010-07"}},{"type":"Feature","geometry":{"type":"Point","coordinates":[-99.13663019000002,19.32964492]},"properties":{"id":"6316335","nombre":"OXXO SUC 50VKN LA VIRGEN MEX","giro":"minisuper","scian":"462112","personalOcupado":"6 a 10 personas","direccion":"CALZADA CALZADA DE LA VIRGEN 113","colonia":"AVANTE","codigoPostal":"04460","alcaldia":"Coyoacán","lat":19.32964492,"lng":-99.13663019000002,"fechaAlta":"2010-07"}},{"type":"Feature","geometry":{"type":"Point","coordinates":[-99.10554240999998,19.48886055]},"properties":{"id":"6729000","nombre":"TIENDAS TRES B","giro":"minisuper","scian":"462112","personalOcupado":"6 a 10 personas","direccion":"AVENIDA GENERAL MARTN CARRERA SN","colonia":"MARTN CARRERA","codigoPostal":"07070","alcaldia":"Gustavo A. Madero","lat":19.48886055,"lng":-99.10554240999998,"fechaAlta":"2016-01"}},{"type":"Feature","geometry":{"type":"Point","coordinates":[-99.24134497,19.40488537]},"properties":{"id":"6325536","nombre":"OXXO SUC 50DZD DURAZNOS MEX","giro":"minisuper","scian":"462112","personalOcupado":"6 a 10 personas","direccion":"CALLE BOSQUE DE DURAZNOS 75","colonia":"BOSQUE DE LAS LOMAS","codigoPostal":"11700","alcaldia":"Miguel Hidalgo","lat":19.40488537,"lng":-99.24134497,"fechaAlta":"2010-07"}},{"type":"Feature","geometry":{"type":"Point","coordinates":[-99.07898774000002,19.41805226]},"properties":{"id":"6316426","nombre":"OXXO SUC 50VKE AEROPUERTO T2 MEX","giro":"minisuper","scian":"462112","personalOcupado":"6 a 10 personas","direccion":"EJE VIAL 1 NORTE AVENIDA HANGARES DE AVIACION FUERZA AEREA MEXICANA 0","colonia":"PEON DE LOS BAOS","codigoPostal":"15620","alcaldia":"Venustiano Carranza","lat":19.41805226,"lng":-99.07898774000002,"fechaAlta":"2010-07"}},{"type":"Feature","geometry":{"type":"Point","coordinates":[-99.15822578,19.44250198]},"properties":{"id":"9296282","nombre":"TIENDAS TRES B","giro":"minisuper","scian":"462112","personalOcupado":"6 a 10 personas","direccion":"CALLE SANTA MARIA LA RIBERA 24","colonia":"SANTA MARA LA RIBERA","codigoPostal":"06400","alcaldia":"Cuauhtémoc","lat":19.44250198,"lng":-99.15822578,"fechaAlta":"2020-11"}},{"type":"Feature","geometry":{"type":"Point","coordinates":[-99.13930041999998,19.3870674]},"properties":{"id":"6316858","nombre":"OXXO SUC 50DZG QUINTA DE CORTES MEX","giro":"minisuper","scian":"462112","personalOcupado":"6 a 10 personas","direccion":"CALZADA CALZADA DE TLALPAN 905","colonia":"JOSEFA ORTIZ DE DOMNGUEZ","codigoPostal":"03440","alcaldia":"Benito Juárez","lat":19.3870674,"lng":-99.13930041999998,"fechaAlta":"2010-07"}},{"type":"Feature","geometry":{"type":"Point","coordinates":[-99.14472368,19.44658654]},"properties":{"id":"6712353","nombre":"OXXO SUC 50VJX ZARCO MEX","giro":"minisuper","scian":"462112","personalOcupado":"6 a 10 personas","direccion":"CALLE ZARCO 151","colonia":"GUERRERO","codigoPostal":"06300","alcaldia":"Cuauhtémoc","lat":19.44658654,"lng":-99.14472368,"fechaAlta":"2016-01"}},{"type":"Feature","geometry":{"type":"Point","coordinates":[-99.05721921000001,19.39906254]},"properties":{"id":"9452747","nombre":"TIENDAS TRES B","giro":"minisuper","scian":"462112","personalOcupado":"6 a 10 personas","direccion":"CALLE PABLO GARCA 23","colonia":"JUAN ESCUTIA","codigoPostal":"09830","alcaldia":"Iztapalapa","lat":19.39906254,"lng":-99.05721921000001,"fechaAlta":"2023-11"}},{"type":"Feature","geometry":{"type":"Point","coordinates":[-99.17452283,19.48103011]},"properties":{"id":"11753523","nombre":"OXXO SUC 50E0W ARCINIEGA MEX","giro":"minisuper","scian":"462112","personalOcupado":"6 a 10 personas","direccion":"AVENIDA PRIVADA ACALOTENCO 619","colonia":"SAN SEBASTIN","codigoPostal":"02040","alcaldia":"Azcapotzalco","lat":19.48103011,"lng":-99.17452283,"fechaAlta":"2025-04"}},{"type":"Feature","geometry":{"type":"Point","coordinates":[-99.07904508,19.48503262]},"properties":{"id":"9482834","nombre":"TIENDAS TRES B","giro":"minisuper","scian":"462112","personalOcupado":"6 a 10 personas","direccion":"CALLE CAMINO DEL ESFUERZO 101","colonia":"CAMPESTRE ARAGN","codigoPostal":"07530","alcaldia":"Gustavo A. Madero","lat":19.48503262,"lng":-99.07904508,"fechaAlta":"2024-05"}},{"type":"Feature","geometry":{"type":"Point","coordinates":[-99.0037935,19.33619868]},"properties":{"id":"9419734","nombre":"OXXO SUC 50E11 CAUELAS MEX","giro":"minisuper","scian":"462112","personalOcupado":"6 a 10 personas","direccion":"CALLE CAUELA 9","colonia":"LOMAS DE LA ESTANCIA","codigoPostal":"09640","alcaldia":"Iztapalapa","lat":19.33619868,"lng":-99.0037935,"fechaAlta":"2024-05"}},{"type":"Feature","geometry":{"type":"Point","coordinates":[-99.1397898,19.44015004]},"properties":{"id":"9301357","nombre":"TIENDAS TRES B","giro":"minisuper","scian":"462112","personalOcupado":"6 a 10 personas","direccion":"EJE VIAL CENTRAL (LAZARO CARDENAS) 25","colonia":"CENTRO","codigoPostal":"06000","alcaldia":"Cuauhtémoc","lat":19.44015004,"lng":-99.1397898,"fechaAlta":"2020-11"}},{"type":"Feature","geometry":{"type":"Point","coordinates":[-99.04806434,19.39440322]},"properties":{"id":"9462397","nombre":"TIENDAS TRES B","giro":"minisuper","scian":"462112","personalOcupado":"6 a 10 personas","direccion":"CALLE CORONEL LINO MERINO 319","colonia":"JUAN ESCUTIA","codigoPostal":"09100","alcaldia":"Iztapalapa","lat":19.39440322,"lng":-99.04806434,"fechaAlta":"2023-11"}},{"type":"Feature","geometry":{"type":"Point","coordinates":[-98.99978789,19.27370507]},"properties":{"id":"6781901","nombre":"OXXO SUC 50DVX SAN MATEO MEX","giro":"minisuper","scian":"462112","personalOcupado":"6 a 10 personas","direccion":"AVENIDA CALZADA REFORMA AGRARIA 75","colonia":"SAN MATEO","codigoPostal":"13040","alcaldia":"Tláhuac","lat":19.27370507,"lng":-98.99978789,"fechaAlta":"2017-03"}},{"type":"Feature","geometry":{"type":"Point","coordinates":[-99.15178002,19.38623175]},"properties":{"id":"6705595","nombre":"OXXO SUC 50DVY CONCEPCION MEX","giro":"minisuper","scian":"462112","personalOcupado":"6 a 10 personas","direccion":"CALLE CONCEPCIN BEISTEGUI 1803","colonia":"NARVARTE ORIENTE","codigoPostal":"03023","alcaldia":"Benito Juárez","lat":19.38623175,"lng":-99.15178002,"fechaAlta":"2016-01"}},{"type":"Feature","geometry":{"type":"Point","coordinates":[-99.14472417,19.4457141]},"properties":{"id":"8833956","nombre":"TIENDAS TRES B","giro":"minisuper","scian":"462112","personalOcupado":"6 a 10 personas","direccion":"CALLE DEGOLLADO 121","colonia":"GUERRERO","codigoPostal":"06300","alcaldia":"Cuauhtémoc","lat":19.4457141,"lng":-99.14472417,"fechaAlta":"2019-11"}},{"type":"Feature","geometry":{"type":"Point","coordinates":[-99.18068489,19.45627246]},"properties":{"id":"6305892","nombre":"OXXO SUC 50DPP POPOTLA MEX","giro":"minisuper","scian":"462112","personalOcupado":"6 a 10 personas","direccion":"AVENIDA GENERAL MARIANO ESCOBEDO SN","colonia":"POPOTLA","codigoPostal":"11400","alcaldia":"Miguel Hidalgo","lat":19.45627246,"lng":-99.18068489,"fechaAlta":"2010-07"}},{"type":"Feature","geometry":{"type":"Point","coordinates":[-99.1277523,19.39064189]},"properties":{"id":"9422715","nombre":"TIENDAS TRES B","giro":"minisuper","scian":"462112","personalOcupado":"6 a 10 personas","direccion":"AVENIDA AV SANTIAGO 184","colonia":"SANTIAGO SUR","codigoPostal":"08200","alcaldia":"Iztacalco","lat":19.39064189,"lng":-99.1277523,"fechaAlta":"2024-05"}},{"type":"Feature","geometry":{"type":"Point","coordinates":[-99.05919546000001,19.31458656]},"properties":{"id":"6781865","nombre":"OXXO SUC 50DSL EL ARBOL MEX","giro":"minisuper","scian":"462112","personalOcupado":"6 a 10 personas","direccion":"AVENIDA DEL RBOL SN","colonia":"LOMAS DE SAN LORENZO","codigoPostal":"09780","alcaldia":"Iztapalapa","lat":19.31458656,"lng":-99.05919546000001,"fechaAlta":"2017-03"}},{"type":"Feature","geometry":{"type":"Point","coordinates":[-99.14409883,19.44999998]},"properties":{"id":"8833954","nombre":"TIENDAS TRES B","giro":"minisuper","scian":"462112","personalOcupado":"6 a 10 personas","direccion":"CALLE ZARCO 222","colonia":"GUERRERO","codigoPostal":"06300","alcaldia":"Cuauhtémoc","lat":19.44999998,"lng":-99.14409883,"fechaAlta":"2019-11"}},{"type":"Feature","geometry":{"type":"Point","coordinates":[-99.20629122,19.35825462]},"properties":{"id":"6796515","nombre":"OXXO SUC 50DPC ALBUFERAS MEX","giro":"minisuper","scian":"462112","personalOcupado":"6 a 10 personas","direccion":"AVENIDA GUTIRREZ ZAMORA 21512","colonia":"LAS GUILAS","codigoPostal":"01759","alcaldia":"Álvaro Obregón","lat":19.35825462,"lng":-99.20629122,"fechaAlta":"2017-11"}},{"type":"Feature","geometry":{"type":"Point","coordinates":[-99.13632497,19.49129814]},"properties":{"id":"9486815","nombre":"TIENDAS TRES B","giro":"minisuper","scian":"462112","personalOcupado":"6 a 10 personas","direccion":"AVENIDA MONTEVIDEO 659","colonia":"SAN BARTOLO ATEPEHUACAN","codigoPostal":"07755","alcaldia":"Gustavo A. Madero","lat":19.49129814,"lng":-99.13632497,"fechaAlta":"2024-05"}},{"type":"Feature","geometry":{"type":"Point","coordinates":[-99.15763818,19.47894679]},"properties":{"id":"6307508","nombre":"OXXO SUC 50DPM PARQUE JARDIN MEX","giro":"minisuper","scian":"462112","personalOcupado":"6 a 10 personas","direccion":"AVENIDA JARDN 331","colonia":"PRO HOGAR","codigoPostal":"02600","alcaldia":"Azcapotzalco","lat":19.47894679,"lng":-99.15763818,"fechaAlta":"2014-12"}},{"type":"Feature","geometry":{"type":"Point","coordinates":[-99.14939254,19.44551758]},"properties":{"id":"9394560","nombre":"TIENDAS TRES B","giro":"minisuper","scian":"462112","personalOcupado":"6 a 10 personas","direccion":"EJE VIAL 1 NORTE (MOSQUETA) 236","colonia":"BUENAVISTA","codigoPostal":"06350","alcaldia":"Cuauhtémoc","lat":19.44551758,"lng":-99.14939254,"fechaAlta":"2023-11"}},{"type":"Feature","geometry":{"type":"Point","coordinates":[-99.09381337,19.4247037]},"properties":{"id":"6717539","nombre":"OXXO SUC 50DUA EST. AEROPUERTO MEX","giro":"minisuper","scian":"462112","personalOcupado":"6 a 10 personas","direccion":"CIRCUITO INTERIOR BOULEVARD PUERTO AEREO 134","colonia":"MOCTEZUMA SEGUNDA SECCIN","codigoPostal":"15530","alcaldia":"Venustiano Carranza","lat":19.4247037,"lng":-99.09381337,"fechaAlta":"2016-01"}},{"type":"Feature","geometry":{"type":"Point","coordinates":[-99.06637467,19.41526124]},"properties":{"id":"9482829","nombre":"TIENDAS TRES B","giro":"minisuper","scian":"462112","personalOcupado":"6 a 10 personas","direccion":"CALLE CALLE 2 247","colonia":"AGRCOLA PANTITLAN","codigoPostal":"08100","alcaldia":"Iztacalco","lat":19.41526124,"lng":-99.06637467,"fechaAlta":"2024-05"}},{"type":"Feature","geometry":{"type":"Point","coordinates":[-99.173248,19.42647867]},"properties":{"id":"6316412","nombre":"OXXO SUC 50DUE DUERO MEX","giro":"minisuper","scian":"462112","personalOcupado":"6 a 10 personas","direccion":"CALLE RO LERMA 265","colonia":"CUAUHTMOC","codigoPostal":"06500","alcaldia":"Cuauhtémoc","lat":19.42647867,"lng":-99.173248,"fechaAlta":"2010-07"}},{"type":"Feature","geometry":{"type":"Point","coordinates":[-99.1363155,19.44878202]},"properties":{"id":"9447604","nombre":"TIENDAS TRES B","giro":"minisuper","scian":"462112","personalOcupado":"6 a 10 personas","direccion":"AVENIDA RICARDO FLORES MAGN 6","colonia":"GUERRERO","codigoPostal":"06300","alcaldia":"Cuauhtémoc","lat":19.44878202,"lng":-99.1363155,"fechaAlta":"2023-11"}},{"type":"Feature","geometry":{"type":"Point","coordinates":[-99.09771095,19.4016613]},"properties":{"id":"6307522","nombre":"OXXO SUC 50DTO AVENA MEX","giro":"minisuper","scian":"462112","personalOcupado":"6 a 10 personas","direccion":"CIRCUITO INTERIOR AVENIDA RIO CHURUBUSCO 495","colonia":"GRANJAS MXICO","codigoPostal":"08400","alcaldia":"Iztacalco","lat":19.4016613,"lng":-99.09771095,"fechaAlta":"2014-12"}},{"type":"Feature","geometry":{"type":"Point","coordinates":[-99.11167887,19.48750697]},"properties":{"id":"9409000","nombre":"TIENDAS TRES B","giro":"minisuper","scian":"462112","personalOcupado":"6 a 10 personas","direccion":"AVENIDA GENERAL MARTIN CARRERA 4","colonia":"MARTN CARRERA","codigoPostal":"07070","alcaldia":"Gustavo A. Madero","lat":19.48750697,"lng":-99.11167887,"fechaAlta":"2024-05"}},{"type":"Feature","geometry":{"type":"Point","coordinates":[-99.07587792,19.49268503]},"properties":{"id":"6781760","nombre":"OXXO SUC 50DTS VILLA DE AYALA MEX","giro":"minisuper","scian":"462112","personalOcupado":"6 a 10 personas","direccion":"AVENIDA DOLORES HIDALGO 233","colonia":"SAN FELIPE DE JESS","codigoPostal":"07510","alcaldia":"Gustavo A. Madero","lat":19.49268503,"lng":-99.07587792,"fechaAlta":"2017-03"}},{"type":"Feature","geometry":{"type":"Point","coordinates":[-99.13884946,19.44761992]},"properties":{"id":"6317062","nombre":"TIENDAS TRES B","giro":"minisuper","scian":"462112","personalOcupado":"6 a 10 personas","direccion":"EJE VIAL CENTRAL (LZARO CRDENAS) 4","colonia":"GUERRERO","codigoPostal":"06300","alcaldia":"Cuauhtémoc","lat":19.44761992,"lng":-99.13884946,"fechaAlta":"2014-12"}},{"type":"Feature","geometry":{"type":"Point","coordinates":[-99.14631763,19.44374318]},"properties":{"id":"9296504","nombre":"TIENDAS TRES B","giro":"minisuper","scian":"462112","personalOcupado":"6 a 10 personas","direccion":"CALLE HEROES 98","colonia":"GUERRERO","codigoPostal":"06300","alcaldia":"Cuauhtémoc","lat":19.44374318,"lng":-99.14631763,"fechaAlta":"2020-11"}},{"type":"Feature","geometry":{"type":"Point","coordinates":[-99.18066577,19.36262554]},"properties":{"id":"6316758","nombre":"OXXO SUC 50DWH CAMELIA MEX","giro":"minisuper","scian":"462112","personalOcupado":"6 a 10 personas","direccion":"CALLE CAMELIA 3","colonia":"FLORIDA","codigoPostal":"01030","alcaldia":"Álvaro Obregón","lat":19.36262554,"lng":-99.18066577,"fechaAlta":"2010-07"}},{"type":"Feature","geometry":{"type":"Point","coordinates":[-99.09407705,19.49459747]},"properties":{"id":"8779848","nombre":"TIENDAS TRES B","giro":"minisuper","scian":"462112","personalOcupado":"6 a 10 personas","direccion":"CALLE FRAY PEDRO DE GANTE 61","colonia":"VASCO DE QUIROGA","codigoPostal":"07440","alcaldia":"Gustavo A. Madero","lat":19.49459747,"lng":-99.09407705,"fechaAlta":"2019-11"}},{"type":"Feature","geometry":{"type":"Point","coordinates":[-99.14576166,19.41991699]},"properties":{"id":"6317642","nombre":"OXXO SUC 50DOX PLAZA NOVA MEX","giro":"minisuper","scian":"462112","personalOcupado":"6 a 10 personas","direccion":"CALLE DOCTOR AGUSTN ANDRADE 60","colonia":"DOCTORES","codigoPostal":"06720","alcaldia":"Cuauhtémoc","lat":19.41991699,"lng":-99.14576166,"fechaAlta":"2014-12"}},{"type":"Feature","geometry":{"type":"Point","coordinates":[-99.03905868000001,19.34973237]},"properties":{"id":"6312775","nombre":"OXXO SUC 50DMX AZTAHUACAN MEX","giro":"minisuper","scian":"462112","personalOcupado":"6 a 10 personas","direccion":"CALLE ANILLO DE CIRCUNVALACION 12","colonia":"SANTA MARA AZTAHUACAN","codigoPostal":"09570","alcaldia":"Iztapalapa","lat":19.34973237,"lng":-99.03905868000001,"fechaAlta":"2014-12"}},{"type":"Feature","geometry":{"type":"Point","coordinates":[-99.1557967,19.45222934]},"properties":{"id":"9409962","nombre":"TIENDAS TRES B","giro":"minisuper","scian":"462112","personalOcupado":"6 a 10 personas","direccion":"CALLE ELIGIO ANCONA 95","colonia":"SANTA MARA LA RIBERA","codigoPostal":"06400","alcaldia":"Cuauhtémoc","lat":19.45222934,"lng":-99.1557967,"fechaAlta":"2023-11"}},{"type":"Feature","geometry":{"type":"Point","coordinates":[-99.16654379000002,19.44081478]},"properties":{"id":"6792752","nombre":"OXXO SUC 50DND ALFONSO HERRERA MEX","giro":"minisuper","scian":"462112","personalOcupado":"6 a 10 personas","direccion":"CALLE ALFONSO HERRERA 130","colonia":"SAN RAFAEL","codigoPostal":"06470","alcaldia":"Cuauhtémoc","lat":19.44081478,"lng":-99.16654379000002,"fechaAlta":"2017-03"}},{"type":"Feature","geometry":{"type":"Point","coordinates":[-99.07696533999999,19.49349771]},"properties":{"id":"9482828","nombre":"TIENDAS TRES B","giro":"minisuper","scian":"462112","personalOcupado":"6 a 10 personas","direccion":"AVENIDA DOLORES HIDALGO SN","colonia":"SAN FELIPE DE JESS","codigoPostal":"07510","alcaldia":"Gustavo A. Madero","lat":19.49349771,"lng":-99.07696533999999,"fechaAlta":"2024-05"}},{"type":"Feature","geometry":{"type":"Point","coordinates":[-99.17327723,19.49254113]},"properties":{"id":"6305734","nombre":"OXXO SUC 50DJF FERRERIA MEX","giro":"minisuper","scian":"462112","personalOcupado":"6 a 10 personas","direccion":"AVENIDA MIGUEL HIDALGO 16","colonia":"CENTRO DE AZCAPOTZALCO","codigoPostal":"02250","alcaldia":"Azcapotzalco","lat":19.49254113,"lng":-99.17327723,"fechaAlta":"2014-12"}},{"type":"Feature","geometry":{"type":"Point","coordinates":[-99.12862372,19.44983026]},"properties":{"id":"6317497","nombre":"TIENDAS TRES B","giro":"minisuper","scian":"462112","personalOcupado":"6 a 10 personas","direccion":"CALLE TENOCHTITLN 13","colonia":"MORELOS","codigoPostal":"06200","alcaldia":"Cuauhtémoc","lat":19.44983026,"lng":-99.12862372,"fechaAlta":"2014-12"}},{"type":"Feature","geometry":{"type":"Point","coordinates":[-99.18750575,19.37824166]},"properties":{"id":"6324559","nombre":"OXXO SUC 50DKG VAN DICK MEX","giro":"minisuper","scian":"462112","personalOcupado":"6 a 10 personas","direccion":"CIRCUITO INTERIOR (AVENIDA REVOLUCIN) 819","colonia":"SANTA MARA NONOALCO","codigoPostal":"03910","alcaldia":"Benito Juárez","lat":19.37824166,"lng":-99.18750575,"fechaAlta":"2012-06"}},{"type":"Feature","geometry":{"type":"Point","coordinates":[-99.06359597,19.38664655]},"properties":{"id":"9459304","nombre":"TIENDAS TRES B","giro":"minisuper","scian":"462112","personalOcupado":"6 a 10 personas","direccion":"CALLE SUR 24 336","colonia":"AGRCOLA ORIENTAL","codigoPostal":"08500","alcaldia":"Iztacalco","lat":19.38664655,"lng":-99.06359597,"fechaAlta":"2024-05"}},{"type":"Feature","geometry":{"type":"Point","coordinates":[-99.12488516000002,19.45728083]},"properties":{"id":"885256","nombre":"TIENDAS TRES B","giro":"minisuper","scian":"462112","personalOcupado":"6 a 10 personas","direccion":"CALLE MELLADO 9","colonia":"VALLE GMEZ","codigoPostal":"06240","alcaldia":"Cuauhtémoc","lat":19.45728083,"lng":-99.12488516000002,"fechaAlta":"2014-12"}},{"type":"Feature","geometry":{"type":"Point","coordinates":[-99.16862181,19.43605804]},"properties":{"id":"6781781","nombre":"OXXO SUC 50DIX PARQUE VIA I MEX","giro":"minisuper","scian":"462112","personalOcupado":"6 a 10 personas","direccion":"AVENIDA PARQUE VA 205","colonia":"SAN RAFAEL","codigoPostal":"06470","alcaldia":"Cuauhtémoc","lat":19.43605804,"lng":-99.16862181,"fechaAlta":"2017-03"}},{"type":"Feature","geometry":{"type":"Point","coordinates":[-99.11315529,19.4995776]},"properties":{"id":"9465810","nombre":"TIENDAS TRES B","giro":"minisuper","scian":"462112","personalOcupado":"6 a 10 personas","direccion":"AVENIDA AV ACUEDUCTO DE GUADALUPE 158","colonia":"SANTA ISABEL TOLA","codigoPostal":"07010","alcaldia":"Gustavo A. Madero","lat":19.4995776,"lng":-99.11315529,"fechaAlta":"2024-05"}},{"type":"Feature","geometry":{"type":"Point","coordinates":[-99.16707685,19.39346583]},"properties":{"id":"6323901","nombre":"OXXO SUC 50DLN DIVISION DEL NTE MEX","giro":"minisuper","scian":"462112","personalOcupado":"6 a 10 personas","direccion":"CALLE ADOLFO PRIETO 415","colonia":"DEL VALLE NORTE","codigoPostal":"03220","alcaldia":"Benito Juárez","lat":19.39346583,"lng":-99.16707685,"fechaAlta":"2010-07"}},{"type":"Feature","geometry":{"type":"Point","coordinates":[-99.15513177,19.44847109]},"properties":{"id":"6727292","nombre":"TIENDAS TRES B","giro":"minisuper","scian":"462112","personalOcupado":"6 a 10 personas","direccion":"CALLE SALVADOR DAZ MIRN 65","colonia":"SANTA MARA LA RIBERA","codigoPostal":"06400","alcaldia":"Cuauhtémoc","lat":19.44847109,"lng":-99.15513177,"fechaAlta":"2016-01"}},{"type":"Feature","geometry":{"type":"Point","coordinates":[-99.18268055,19.44664932]},"properties":{"id":"6727221","nombre":"OXXO SUC 50DMO LAGO BOLSENA I MEX","giro":"minisuper","scian":"462112","personalOcupado":"6 a 10 personas","direccion":"AVENIDA GENERAL MARIANO ESCOBEDO 229","colonia":"LOS MANZANOS","codigoPostal":"11320","alcaldia":"Miguel Hidalgo","lat":19.44664932,"lng":-99.18268055,"fechaAlta":"2016-01"}},{"type":"Feature","geometry":{"type":"Point","coordinates":[-99.06690679,19.38711088]},"properties":{"id":"12322980","nombre":"TIENDAS TRES B","giro":"minisuper","scian":"462112","personalOcupado":"6 a 10 personas","direccion":"CALLE SUR 24 130","colonia":"AGRCOLA ORIENTAL","codigoPostal":"08500","alcaldia":"Iztacalco","lat":19.38711088,"lng":-99.06690679,"fechaAlta":"2026-04"}},{"type":"Feature","geometry":{"type":"Point","coordinates":[-99.2560331,19.32935136]},"properties":{"id":"6697812","nombre":"OXXO SUC 50DKS LUIS ECHEVERRIA MEX","giro":"minisuper","scian":"462112","personalOcupado":"6 a 10 personas","direccion":"CALLE FLOR DE SAN JUAN SN","colonia":"TORRES DE POTRERO","codigoPostal":"01840","alcaldia":"Álvaro Obregón","lat":19.32935136,"lng":-99.2560331,"fechaAlta":"2016-01"}},{"type":"Feature","geometry":{"type":"Point","coordinates":[-99.16227916,19.45547818]},"properties":{"id":"12323326","nombre":"TIENDAS TRES B","giro":"minisuper","scian":"462112","personalOcupado":"6 a 10 personas","direccion":"AVENIDA RICARDO FLORES MAGON 510","colonia":"SANTA MARA LA RIBERA","codigoPostal":"06400","alcaldia":"Cuauhtémoc","lat":19.45547818,"lng":-99.16227916,"fechaAlta":"2026-04"}},{"type":"Feature","geometry":{"type":"Point","coordinates":[-99.14566778,19.34849657]},"properties":{"id":"6319266","nombre":"OXXO SUC 50DKT DAKOTA MEX","giro":"minisuper","scian":"462112","personalOcupado":"6 a 10 personas","direccion":"CALLE DAKOTA 1913","colonia":"PARQUE SAN ANDRS","codigoPostal":"04040","alcaldia":"Coyoacán","lat":19.34849657,"lng":-99.14566778,"fechaAlta":"2010-07"}},{"type":"Feature","geometry":{"type":"Point","coordinates":[-99.07700661,19.49330834]},"properties":{"id":"6702250","nombre":"TIENDAS TRES B","giro":"minisuper","scian":"462112","personalOcupado":"6 a 10 personas","direccion":"CALLE APATZINGN SN","colonia":"SAN FELIPE DE JESS","codigoPostal":"07510","alcaldia":"Gustavo A. Madero","lat":19.49330834,"lng":-99.07700661,"fechaAlta":"2016-01"}},{"type":"Feature","geometry":{"type":"Point","coordinates":[-99.09702955999998,19.39223324]},"properties":{"id":"9483320","nombre":"TIENDAS TRES B","giro":"minisuper","scian":"462112","personalOcupado":"6 a 10 personas","direccion":"CALLE SUR 149 2107","colonia":"GABRIEL RAMOS MILLN SECCIN BRAMADERO","codigoPostal":"08000","alcaldia":"Iztacalco","lat":19.39223324,"lng":-99.09702955999998,"fechaAlta":"2024-05"}},{"type":"Feature","geometry":{"type":"Point","coordinates":[-99.12515393,19.43278187]},"properties":{"id":"9413763","nombre":"OXXO SUC 50DI0 ZAPATA II","giro":"minisuper","scian":"462112","personalOcupado":"6 a 10 personas","direccion":"CALLE EMILIANO ZAPATA 77","colonia":"CENTRO","codigoPostal":"06060","alcaldia":"Cuauhtémoc","lat":19.43278187,"lng":-99.12515393,"fechaAlta":"2024-05"}},{"type":"Feature","geometry":{"type":"Point","coordinates":[-99.19539279,19.38849766]},"properties":{"id":"6791800","nombre":"OXXO SUC 50DIS VIA CENTRAL MEX","giro":"minisuper","scian":"462112","personalOcupado":"6 a 10 personas","direccion":"CALLE ANCONITANOS 5","colonia":"TOLTECA","codigoPostal":"01160","alcaldia":"Álvaro Obregón","lat":19.38849766,"lng":-99.19539279,"fechaAlta":"2017-03"}},{"type":"Feature","geometry":{"type":"Point","coordinates":[-99.14268737,19.45925532]},"properties":{"id":"1046162","nombre":"TIENDAS TRES B","giro":"minisuper","scian":"462112","personalOcupado":"6 a 10 personas","direccion":"CALLE ZOLTAN KODALY 59","colonia":"SAN SIMN TOLNAHUAC","codigoPostal":"06920","alcaldia":"Cuauhtémoc","lat":19.45925532,"lng":-99.14268737,"fechaAlta":"2010-07"}},{"type":"Feature","geometry":{"type":"Point","coordinates":[-99.17407234,19.28219691]},"properties":{"id":"6318161","nombre":"OXXO SUC 50DHM ZENZONTLE MEX","giro":"minisuper","scian":"462112","personalOcupado":"6 a 10 personas","direccion":"AVENIDA INSURGENTES SUR 4134","colonia":"TLALPAN CENTRO","codigoPostal":"14000","alcaldia":"Tlalpan","lat":19.28219691,"lng":-99.17407234,"fechaAlta":"2011-03"}},{"type":"Feature","geometry":{"type":"Point","coordinates":[-99.1103325,19.39575776]},"properties":{"id":"9396606","nombre":"TIENDAS TRES B","giro":"minisuper","scian":"462112","personalOcupado":"6 a 10 personas","direccion":"CALLE SUR 109 2420","colonia":"TLAZINTLA","codigoPostal":"08710","alcaldia":"Iztacalco","lat":19.39575776,"lng":-99.1103325,"fechaAlta":"2024-05"}},{"type":"Feature","geometry":{"type":"Point","coordinates":[-99.2038219,19.33948819]},"properties":{"id":"6699140","nombre":"OXXO SUC 50DHV CERRADA DURANGO MEX","giro":"minisuper","scian":"462112","personalOcupado":"6 a 10 personas","direccion":"CALLE CERRADA DURANGO 38","colonia":"PROGRESO TIZAPAN","codigoPostal":"01080","alcaldia":"Álvaro Obregón","lat":19.33948819,"lng":-99.2038219,"fechaAlta":"2016-01"}},{"type":"Feature","geometry":{"type":"Point","coordinates":[-99.14564941,19.45863268]},"properties":{"id":"9468523","nombre":"TIENDAS TRES B","giro":"minisuper","scian":"462112","personalOcupado":"6 a 10 personas","direccion":"CALZADA SAN SIMN 170","colonia":"SAN SIMN TOLNAHUAC","codigoPostal":"06920","alcaldia":"Cuauhtémoc","lat":19.45863268,"lng":-99.14564941,"fechaAlta":"2023-11"}},{"type":"Feature","geometry":{"type":"Point","coordinates":[-99.13861799,19.32396633]},"properties":{"id":"6814193","nombre":"OXXO SUC 50DGA NEZAHUALPILLI MEX","giro":"minisuper","scian":"462112","personalOcupado":"6 a 10 personas","direccion":"CALLE NEZAHUALPILLI 27","colonia":"XOTEPINGO","codigoPostal":"04610","alcaldia":"Coyoacán","lat":19.32396633,"lng":-99.13861799,"fechaAlta":"2017-11"}},{"type":"Feature","geometry":{"type":"Point","coordinates":[-99.0715396,19.49971856]},"properties":{"id":"8780013","nombre":"TIENDAS TRES B","giro":"minisuper","scian":"462112","personalOcupado":"6 a 10 personas","direccion":"AVENIDA TEPATITLN SN","colonia":"SAN FELIPE DE JESS","codigoPostal":"07510","alcaldia":"Gustavo A. Madero","lat":19.49971856,"lng":-99.0715396,"fechaAlta":"2019-11"}},{"type":"Feature","geometry":{"type":"Point","coordinates":[-99.14996488,19.47302952]},"properties":{"id":"6325541","nombre":"OXXO SUC 50DGF ALDANA MEX","giro":"minisuper","scian":"462112","personalOcupado":"6 a 10 personas","direccion":"EJE VIAL 3 NORTE CUITLAHUAC 300","colonia":"ALDANA","codigoPostal":"02910","alcaldia":"Azcapotzalco","lat":19.47302952,"lng":-99.14996488,"fechaAlta":"2010-07"}},{"type":"Feature","geometry":{"type":"Point","coordinates":[-99.14204942,19.19954381]},"properties":{"id":"9453282","nombre":"TIENDAS TRES B","giro":"minisuper","scian":"462112","personalOcupado":"6 a 10 personas","direccion":"CALLE MOCTEZUMA 3","colonia":"SAN MIGUEL TOPILEJO","codigoPostal":"14500","alcaldia":"Tlalpan","lat":19.19954381,"lng":-99.14204942,"fechaAlta":"2024-05"}},{"type":"Feature","geometry":{"type":"Point","coordinates":[-99.06667895,19.39342285]},"properties":{"id":"6307452","nombre":"TIENDAS TRES B","giro":"minisuper","scian":"462112","personalOcupado":"6 a 10 personas","direccion":"CALLE SUR 16 SN","colonia":"AGRCOLA ORIENTAL","codigoPostal":"08500","alcaldia":"Iztacalco","lat":19.39342285,"lng":-99.06667895,"fechaAlta":"2010-07"}},{"type":"Feature","geometry":{"type":"Point","coordinates":[-99.19782223,19.36599027]},"properties":{"id":"9419476","nombre":"OXXO SUC 50DGT ANAYA MEX","giro":"minisuper","scian":"462112","personalOcupado":"6 a 10 personas","direccion":"AVENIDA CENTENARIO 104","colonia":"MERCED GMEZ","codigoPostal":"01600","alcaldia":"Álvaro Obregón","lat":19.36599027,"lng":-99.19782223,"fechaAlta":"2024-05"}},{"type":"Feature","geometry":{"type":"Point","coordinates":[-99.13806842,19.49186944]},"properties":{"id":"10636158","nombre":"TIENDAS TRES B","giro":"minisuper","scian":"462112","personalOcupado":"6 a 10 personas","direccion":"EJE VIAL 5 NORTE MONTEVIDEO 461","colonia":"LINDAVISTA SUR","codigoPostal":"07300","alcaldia":"Gustavo A. Madero","lat":19.49186944,"lng":-99.13806842,"fechaAlta":"2024-11"}},{"type":"Feature","geometry":{"type":"Point","coordinates":[-99.19201251000001,19.36711839]},"properties":{"id":"6796414","nombre":"OXXO SUC 50DGV OCARANZA MEX","giro":"minisuper","scian":"462112","personalOcupado":"6 a 10 personas","direccion":"CALLE MIGUEL OCARANZA 107","colonia":"MERCED GMEZ","codigoPostal":"01600","alcaldia":"Álvaro Obregón","lat":19.36711839,"lng":-99.19201251000001,"fechaAlta":"2017-11"}},{"type":"Feature","geometry":{"type":"Point","coordinates":[-99.1297727,19.45989476]},"properties":{"id":"6316948","nombre":"TIENDAS TRES B","giro":"minisuper","scian":"462112","personalOcupado":"6 a 10 personas","direccion":"CALLE LUDWING VAN BEETHOVEN 23","colonia":"PERALVILLO","codigoPostal":"06220","alcaldia":"Cuauhtémoc","lat":19.45989476,"lng":-99.1297727,"fechaAlta":"2014-12"}},{"type":"Feature","geometry":{"type":"Point","coordinates":[-99.02843423000002,19.38711884]},"properties":{"id":"6787692","nombre":"OXXO SUC 50DGI ANTILLANO MEX","giro":"minisuper","scian":"462112","personalOcupado":"6 a 10 personas","direccion":"AVENIDA TEXCOCO 136","colonia":"JUAN ESCUTIA","codigoPostal":"09100","alcaldia":"Iztapalapa","lat":19.38711884,"lng":-99.02843423000002,"fechaAlta":"2017-03"}},{"type":"Feature","geometry":{"type":"Point","coordinates":[-99.0667274,19.39296147]},"properties":{"id":"9408365","nombre":"TIENDAS TRES B","giro":"minisuper","scian":"462112","personalOcupado":"6 a 10 personas","direccion":"CALLE SUR 16 263","colonia":"AGRCOLA ORIENTAL","codigoPostal":"08500","alcaldia":"Iztacalco","lat":19.39296147,"lng":-99.0667274,"fechaAlta":"2024-05"}},{"type":"Feature","geometry":{"type":"Point","coordinates":[-99.20048353000001,19.33631645]},"properties":{"id":"6316762","nombre":"OXXO SUC 50DGP RIO MAGDALENA MEX","giro":"minisuper","scian":"462112","personalOcupado":"6 a 10 personas","direccion":"EJE VIAL 10 SUR (RO MAGDALENA) 180","colonia":"LA OTRA BANDA","codigoPostal":"01090","alcaldia":"Álvaro Obregón","lat":19.33631645,"lng":-99.20048353000001,"fechaAlta":"2010-07"}},{"type":"Feature","geometry":{"type":"Point","coordinates":[-99.1386318,19.46163647]},"properties":{"id":"6316944","nombre":"TIENDAS TRES B","giro":"minisuper","scian":"462112","personalOcupado":"6 a 10 personas","direccion":"CALLE LUDWING VAN BEETHOVEN 187","colonia":"PERALVILLO","codigoPostal":"06220","alcaldia":"Cuauhtémoc","lat":19.46163647,"lng":-99.1386318,"fechaAlta":"2014-12"}},{"type":"Feature","geometry":{"type":"Point","coordinates":[-99.173434,19.369428]},"properties":{"id":"6316372","nombre":"OXXO SUC 50DFP ADOLFO PRIETO MEX","giro":"minisuper","scian":"462112","personalOcupado":"6 a 10 personas","direccion":"CALLE ADOLFO PRIETO 615","colonia":"DEL VALLE NORTE","codigoPostal":"03100","alcaldia":"Benito Juárez","lat":19.369428,"lng":-99.173434,"fechaAlta":"2010-07"}},{"type":"Feature","geometry":{"type":"Point","coordinates":[-99.13600362,19.20332333]},"properties":{"id":"9453279","nombre":"TIENDAS TRES B","giro":"minisuper","scian":"462112","personalOcupado":"6 a 10 personas","direccion":"CALLE CARRETERA A XOCHIMILCO-TOPILEJO SN","colonia":"SAN MIGUEL TOPILEJO","codigoPostal":"14500","alcaldia":"Tlalpan","lat":19.20332333,"lng":-99.13600362,"fechaAlta":"2023-11"}},{"type":"Feature","geometry":{"type":"Point","coordinates":[-99.16244425,19.32089331]},"properties":{"id":"6316705","nombre":"OXXO SUC 50DFT AZTECA MEX","giro":"minisuper","scian":"462112","personalOcupado":"6 a 10 personas","direccion":"AVENIDA AZTECAS 505","colonia":"AJUSCO","codigoPostal":"04300","alcaldia":"Coyoacán","lat":19.32089331,"lng":-99.16244425,"fechaAlta":"2014-12"}},