{"type":"FeatureCollection","features":[{"type":"Feature","geometry":{"type":"Point","coordinates":[-99.22035147,19.31398711]},"properties":{"id":"9401843","nombre":"ISDINMEXICO","giro":"perfumeria","scian":"465111","personalOcupado":"0 a 5 personas","direccion":"PERIFERICO BOULEVARD ADOLFO RUZ CORTINES 3720","colonia":"JARDINES DEL PEDREGAL","codigoPostal":"01900","alcaldia":"Álvaro Obregón","lat":19.31398711,"lng":-99.22035147,"fechaAlta":"2023-11"}},{"type":"Feature","geometry":{"type":"Point","coordinates":[-99.12585302,19.34414269]},"properties":{"id":"10843694","nombre":"ISLA BIODIPLANT","giro":"perfumeria","scian":"465111","personalOcupado":"0 a 5 personas","direccion":"CALLE PASEO DE LOS CIPRESES 222","colonia":"PASEOS DE TAXQUEA","codigoPostal":"04250","alcaldia":"Coyoacán","lat":19.34414269,"lng":-99.12585302,"fechaAlta":"2024-11"}},{"type":"Feature","geometry":{"type":"Point","coordinates":[-99.16495193,19.37731867]},"properties":{"id":"874514","nombre":"ISABELLA IMAGEN SALUD Y BELLEZA","giro":"perfumeria","scian":"465111","personalOcupado":"0 a 5 personas","direccion":"CALLE NICOLAS SAN JUAN 1319","colonia":"DEL VALLE SUR","codigoPostal":"03100","alcaldia":"Benito Juárez","lat":19.37731867,"lng":-99.16495193,"fechaAlta":"2011-03"}},{"type":"Feature","geometry":{"type":"Point","coordinates":[-99.15253571999999,19.30704237]},"properties":{"id":"7718507","nombre":"ISABLUE MAKEUP","giro":"perfumeria","scian":"465111","personalOcupado":"0 a 5 personas","direccion":"CALLE SAN JORGE 644","colonia":"PEDREGAL DE SANTA RSULA","codigoPostal":"04600","alcaldia":"Coyoacán","lat":19.30704237,"lng":-99.15253571999999,"fechaAlta":"2019-11"}},{"type":"Feature","geometry":{"type":"Point","coordinates":[-99.09346956,19.39140706]},"properties":{"id":"9410516","nombre":"IZTACALCO","giro":"perfumeria","scian":"465111","personalOcupado":"0 a 5 personas","direccion":"CALLE ORIENTE 108 3202","colonia":"GABRIEL RAMOS MILLN SECCIN BRAMADERO","codigoPostal":"08000","alcaldia":"Iztacalco","lat":19.39140706,"lng":-99.09346956,"fechaAlta":"2023-11"}},{"type":"Feature","geometry":{"type":"Point","coordinates":[-99.12509825,19.44041568]},"properties":{"id":"8337582","nombre":"IMPORTADORA VISDOMART","giro":"perfumeria","scian":"465111","personalOcupado":"0 a 5 personas","direccion":"CALLE MANUEL DOBLADO 110","colonia":"CENTRO","codigoPostal":"06020","alcaldia":"Cuauhtémoc","lat":19.44041568,"lng":-99.12509825,"fechaAlta":"2019-11"}},{"type":"Feature","geometry":{"type":"Point","coordinates":[-99.12916887,19.43819157]},"properties":{"id":"10165817","nombre":"IMPORTADORA WAN-TLI","giro":"perfumeria","scian":"465111","personalOcupado":"0 a 5 personas","direccion":"CALLE CALLE DEL CARMEN 51","colonia":"CENTRO","codigoPostal":"06020","alcaldia":"Cuauhtémoc","lat":19.43819157,"lng":-99.12916887,"fechaAlta":"2024-11"}},{"type":"Feature","geometry":{"type":"Point","coordinates":[-99.13065682,19.44013839]},"properties":{"id":"7756843","nombre":"IMPORTADORA SUPERNOVA","giro":"perfumeria","scian":"465111","personalOcupado":"0 a 5 personas","direccion":"CALLE APARTADO 14","colonia":"CENTRO","codigoPostal":"06000","alcaldia":"Cuauhtémoc","lat":19.44013839,"lng":-99.13065682,"fechaAlta":"2019-11"}},{"type":"Feature","geometry":{"type":"Point","coordinates":[-99.12673735,19.44024748]},"properties":{"id":"12329911","nombre":"IMPORTADORA SUPERNOVA","giro":"perfumeria","scian":"465111","personalOcupado":"6 a 10 personas","direccion":"CALLE MANUEL DE LA PEA Y PEA 14","colonia":"CENTRO","codigoPostal":"06020","alcaldia":"Cuauhtémoc","lat":19.44024748,"lng":-99.12673735,"fechaAlta":"2026-04"}},{"type":"Feature","geometry":{"type":"Point","coordinates":[-99.13686814,19.3993895]},"properties":{"id":"10878823","nombre":"IN VINO","giro":"perfumeria","scian":"465111","personalOcupado":"0 a 5 personas","direccion":"CALZADA CALZADA DE TLALPAN 498","colonia":"VIADUCTO PIEDAD","codigoPostal":"08200","alcaldia":"Iztacalco","lat":19.3993895,"lng":-99.13686814,"fechaAlta":"2024-11"}},{"type":"Feature","geometry":{"type":"Point","coordinates":[-99.18409721,19.37668146]},"properties":{"id":"6317490","nombre":"INDEX DE MEXICO","giro":"perfumeria","scian":"465111","personalOcupado":"6 a 10 personas","direccion":"CALLE JUAN HONORATO FRAGONARD 40","colonia":"SAN JUAN","codigoPostal":"03720","alcaldia":"Benito Juárez","lat":19.37668146,"lng":-99.18409721,"fechaAlta":"2010-07"}},{"type":"Feature","geometry":{"type":"Point","coordinates":[-99.20997851,19.43845422]},"properties":{"id":"10434684","nombre":"INGLOT","giro":"perfumeria","scian":"465111","personalOcupado":"0 a 5 personas","direccion":"CALLE JAIME BALMES 11","colonia":"POLANCO I SECCIN","codigoPostal":"11510","alcaldia":"Miguel Hidalgo","lat":19.43845422,"lng":-99.20997851,"fechaAlta":"2024-11"}},{"type":"Feature","geometry":{"type":"Point","coordinates":[-99.12464292,19.44308899]},"properties":{"id":"8484640","nombre":"IPERFUMERIA JIMMY","giro":"perfumeria","scian":"465111","personalOcupado":"0 a 5 personas","direccion":"CALLE MANUEL DOBLADO 161","colonia":"MORELOS","codigoPostal":"06200","alcaldia":"Cuauhtémoc","lat":19.44308899,"lng":-99.12464292,"fechaAlta":"2019-11"}},{"type":"Feature","geometry":{"type":"Point","coordinates":[-99.14566749,19.32424884]},"properties":{"id":"11459058","nombre":"ISABELA COSMETICOS","giro":"perfumeria","scian":"465111","personalOcupado":"0 a 5 personas","direccion":"CALLE TECACALO 2","colonia":"ADOLFO RUIZ CORTINES","codigoPostal":"04630","alcaldia":"Coyoacán","lat":19.32424884,"lng":-99.14566749,"fechaAlta":"2024-11"}},{"type":"Feature","geometry":{"type":"Point","coordinates":[-99.13015289,19.43724567]},"properties":{"id":"11069569","nombre":"INSUMOS BARBERIA SIN NOMBRE","giro":"perfumeria","scian":"465111","personalOcupado":"0 a 5 personas","direccion":"CALLE REPUBLICA DE VENEZUELA 46","colonia":"CENTRO","codigoPostal":"06010","alcaldia":"Cuauhtémoc","lat":19.43724567,"lng":-99.13015289,"fechaAlta":"2024-11"}},{"type":"Feature","geometry":{"type":"Point","coordinates":[-99.14069945,19.48795248]},"properties":{"id":"11784982","nombre":"INSUMOS COSCOS","giro":"perfumeria","scian":"465111","personalOcupado":"0 a 5 personas","direccion":"CALLE COBN 562","colonia":"VALLE DEL TEPEYAC","codigoPostal":"07740","alcaldia":"Gustavo A. Madero","lat":19.48795248,"lng":-99.14069945,"fechaAlta":"2025-04"}},{"type":"Feature","geometry":{"type":"Point","coordinates":[-99.13065682,19.44013839]},"properties":{"id":"966864","nombre":"IC PERFUMERIA INTERNACIONAL","giro":"perfumeria","scian":"465111","personalOcupado":"0 a 5 personas","direccion":"CALLE APARTADO 14","colonia":"CENTRO","codigoPostal":"06010","alcaldia":"Cuauhtémoc","lat":19.44013839,"lng":-99.13065682,"fechaAlta":"2010-07"}},{"type":"Feature","geometry":{"type":"Point","coordinates":[-99.11926081,19.29669434]},"properties":{"id":"935107","nombre":"IDEAL CAFETALES COAPA","giro":"perfumeria","scian":"465111","personalOcupado":"0 a 5 personas","direccion":"CALLE CANDELILLA 207","colonia":"RINCONADA LAS HADAS","codigoPostal":"14308","alcaldia":"Tlalpan","lat":19.29669434,"lng":-99.11926081,"fechaAlta":"2014-12"}},{"type":"Feature","geometry":{"type":"Point","coordinates":[-99.07915411,19.32684109]},"properties":{"id":"10895799","nombre":"HYPNOTIK","giro":"perfumeria","scian":"465111","personalOcupado":"0 a 5 personas","direccion":"CALLE CATARROJA 38","colonia":"CERRO DE LA ESTRELLA","codigoPostal":"09850","alcaldia":"Iztapalapa","lat":19.32684109,"lng":-99.07915411,"fechaAlta":"2024-11"}},{"type":"Feature","geometry":{"type":"Point","coordinates":[-99.25564179,19.3131247]},"properties":{"id":"10369765","nombre":"I LOVE MAKEUP","giro":"perfumeria","scian":"465111","personalOcupado":"0 a 5 personas","direccion":"CALLE EMILIANO ZAPATA 20","colonia":"SAN BERNAB OCOTEPEC","codigoPostal":"10300","alcaldia":"La Magdalena Contreras","lat":19.3131247,"lng":-99.25564179,"fechaAlta":"2024-11"}},{"type":"Feature","geometry":{"type":"Point","coordinates":[-99.1333809,19.43919504]},"properties":{"id":"7756181","nombre":"IMPORTACIONES ARTICULOS DE BELLEZA","giro":"perfumeria","scian":"465111","personalOcupado":"0 a 5 personas","direccion":"CALLE REPUBLICA DE BRASIL 46","colonia":"CENTRO","codigoPostal":"06100","alcaldia":"Cuauhtémoc","lat":19.43919504,"lng":-99.1333809,"fechaAlta":"2019-11"}},{"type":"Feature","geometry":{"type":"Point","coordinates":[-99.13580405,19.4333231]},"properties":{"id":"9899224","nombre":"IMAGENCIT","giro":"perfumeria","scian":"465111","personalOcupado":"0 a 5 personas","direccion":"CALLE FRANCISCO I MADERO 55","colonia":"CENTRO","codigoPostal":"06000","alcaldia":"Cuauhtémoc","lat":19.4333231,"lng":-99.13580405,"fechaAlta":"2024-11"}},{"type":"Feature","geometry":{"type":"Point","coordinates":[-99.2334709,19.29360097]},"properties":{"id":"11840461","nombre":"IMERAKI BELLEZA","giro":"perfumeria","scian":"465111","personalOcupado":"0 a 5 personas","direccion":"AVENIDA TETIZ 6","colonia":"PEDREGAL DE SAN NICOLS PRIMERA SECCIN","codigoPostal":"14100","alcaldia":"Tlalpan","lat":19.29360097,"lng":-99.2334709,"fechaAlta":"2025-04"}},{"type":"Feature","geometry":{"type":"Point","coordinates":[-99.12634836,19.44011658]},"properties":{"id":"9055647","nombre":"IMPORTADORA SUPER NOVA","giro":"perfumeria","scian":"465111","personalOcupado":"6 a 10 personas","direccion":"CALLE MANUEL DE LA PEA Y PEA 17","colonia":"CENTRO","codigoPostal":"06020","alcaldia":"Cuauhtémoc","lat":19.44011658,"lng":-99.12634836,"fechaAlta":"2019-11"}},{"type":"Feature","geometry":{"type":"Point","coordinates":[-99.12916887,19.43819157]},"properties":{"id":"11652510","nombre":"IMPORTADORA SUPER NOVA LA MUSA","giro":"perfumeria","scian":"465111","personalOcupado":"0 a 5 personas","direccion":"CALLE CALLE DEL CARMEN 51","colonia":"CENTRO","codigoPostal":"06020","alcaldia":"Cuauhtémoc","lat":19.43819157,"lng":-99.12916887,"fechaAlta":"2024-11"}},{"type":"Feature","geometry":{"type":"Point","coordinates":[-99.12842779,19.44297228]},"properties":{"id":"11424078","nombre":"IMPORTACIONES SUPER NOVA","giro":"perfumeria","scian":"465111","personalOcupado":"0 a 5 personas","direccion":"EJE VIAL 1 NORTE IGNACIO LOPEZ RAYON HEROES DE GRANADITAS 165","colonia":"MORELOS","codigoPostal":"06200","alcaldia":"Cuauhtémoc","lat":19.44297228,"lng":-99.12842779,"fechaAlta":"2024-11"}},{"type":"Feature","geometry":{"type":"Point","coordinates":[-99.13065682,19.44013839]},"properties":{"id":"12329949","nombre":"IMPORTACIONES SUPER NOVA","giro":"perfumeria","scian":"465111","personalOcupado":"0 a 5 personas","direccion":"CALLE APARTADO 14","colonia":"CENTRO","codigoPostal":"06000","alcaldia":"Cuauhtémoc","lat":19.44013839,"lng":-99.13065682,"fechaAlta":"2026-04"}},{"type":"Feature","geometry":{"type":"Point","coordinates":[-99.1269253,19.42878843]},"properties":{"id":"11280965","nombre":"HEMA DISTRIBUIDORA DE PRODUCTOS","giro":"perfumeria","scian":"465111","personalOcupado":"0 a 5 personas","direccion":"CALLE ROLDAN 30","colonia":"CENTRO","codigoPostal":"06000","alcaldia":"Cuauhtémoc","lat":19.42878843,"lng":-99.1269253,"fechaAlta":"2024-11"}},{"type":"Feature","geometry":{"type":"Point","coordinates":[-99.06938244,19.30865405]},"properties":{"id":"8306359","nombre":"PRODUCTOS DE BELLEZA BELLISIMA","giro":"perfumeria","scian":"465111","personalOcupado":"0 a 5 personas","direccion":"CALLE RAFAEL DE LA PEA SN","colonia":"SAN ANTONIO","codigoPostal":"09900","alcaldia":"Iztapalapa","lat":19.30865405,"lng":-99.06938244,"fechaAlta":"2019-11"}},{"type":"Feature","geometry":{"type":"Point","coordinates":[-99.13720111,19.51540238]},"properties":{"id":"8210279","nombre":"HERBALIFE","giro":"perfumeria","scian":"465111","personalOcupado":"0 a 5 personas","direccion":"CALLE BANDERA 87","colonia":"LA PURSIMA TICOMN","codigoPostal":"07320","alcaldia":"Gustavo A. Madero","lat":19.51540238,"lng":-99.13720111,"fechaAlta":"2019-11"}},{"type":"Feature","geometry":{"type":"Point","coordinates":[-99.22252486,19.37604471]},"properties":{"id":"9206199","nombre":"PRODUCTOS DE BELLEZA BELLA CHILANGA","giro":"perfumeria","scian":"465111","personalOcupado":"0 a 5 personas","direccion":"CALLE ADOLFO DE LA HUERTA 77","colonia":"PRESIDENTES","codigoPostal":"01290","alcaldia":"Álvaro Obregón","lat":19.37604471,"lng":-99.22252486,"fechaAlta":"2019-11"}},{"type":"Feature","geometry":{"type":"Point","coordinates":[-99.16121129,19.35244245]},"properties":{"id":"904735","nombre":"HEART CORAZON","giro":"perfumeria","scian":"465111","personalOcupado":"0 a 5 personas","direccion":"CALLE MALINTZIN 127","colonia":"DEL CARMEN","codigoPostal":"04100","alcaldia":"Coyoacán","lat":19.35244245,"lng":-99.16121129,"fechaAlta":"2014-12"}},{"type":"Feature","geometry":{"type":"Point","coordinates":[-99.04018218,19.33961598]},"properties":{"id":"841997","nombre":"PRODUCTOS DE BELLEZA BEAUTY CORNER","giro":"perfumeria","scian":"465111","personalOcupado":"0 a 5 personas","direccion":"CALLE CUAUHTEMOC SN","colonia":"SANTA CRUZ MEYEHUALCO","codigoPostal":"09700","alcaldia":"Iztapalapa","lat":19.33961598,"lng":-99.04018218,"fechaAlta":"2010-07"}},{"type":"Feature","geometry":{"type":"Point","coordinates":[-99.12955765000001,19.4362227]},"properties":{"id":"887430","nombre":"HECHOS BEAUTY","giro":"perfumeria","scian":"465111","personalOcupado":"0 a 5 personas","direccion":"CALLE CALLE DEL CARMEN 26","colonia":"CENTRO","codigoPostal":"06000","alcaldia":"Cuauhtémoc","lat":19.4362227,"lng":-99.12955765000001,"fechaAlta":"2014-12"}},{"type":"Feature","geometry":{"type":"Point","coordinates":[-99.19595832,19.36591145]},"properties":{"id":"11255006","nombre":"PRODUCTOS DE BELLEZA BEATY RAINBOW","giro":"perfumeria","scian":"465111","personalOcupado":"0 a 5 personas","direccion":"AVENIDA CENTENARIO 71","colonia":"MERCED GMEZ","codigoPostal":"01600","alcaldia":"Álvaro Obregón","lat":19.36591145,"lng":-99.19595832,"fechaAlta":"2024-11"}},{"type":"Feature","geometry":{"type":"Point","coordinates":[-99.1366352,19.42608727]},"properties":{"id":"9946363","nombre":"HOGAR","giro":"perfumeria","scian":"465111","personalOcupado":"0 a 5 personas","direccion":"AVENIDA JOSE MARIA IZAZAGA 89","colonia":"CENTRO","codigoPostal":"06010","alcaldia":"Cuauhtémoc","lat":19.42608727,"lng":-99.1366352,"fechaAlta":"2024-11"}},{"type":"Feature","geometry":{"type":"Point","coordinates":[-99.14154087,19.43123943]},"properties":{"id":"11611138","nombre":"HOUSE OF BEATY","giro":"perfumeria","scian":"465111","personalOcupado":"0 a 5 personas","direccion":"CALLE VICTORIA 7","colonia":"CENTRO","codigoPostal":"06050","alcaldia":"Cuauhtémoc","lat":19.43123943,"lng":-99.14154087,"fechaAlta":"2024-11"}},{"type":"Feature","geometry":{"type":"Point","coordinates":[-99.26093685999999,19.30574674]},"properties":{"id":"7923656","nombre":"PRODUCTOS DE BELLEZA BONITA","giro":"perfumeria","scian":"465111","personalOcupado":"0 a 5 personas","direccion":"AVENIDA SAN JERONIMO 14","colonia":"AMPLIACIN POTRERILLO","codigoPostal":"10640","alcaldia":"La Magdalena Contreras","lat":19.30574674,"lng":-99.26093685999999,"fechaAlta":"2019-11"}},{"type":"Feature","geometry":{"type":"Point","coordinates":[-99.128318,19.43012745]},"properties":{"id":"11721256","nombre":"HILDA IMPORT","giro":"perfumeria","scian":"465111","personalOcupado":"0 a 5 personas","direccion":"CALLE VENUSTIANO CARRANZA 155","colonia":"CENTRO","codigoPostal":"06000","alcaldia":"Cuauhtémoc","lat":19.43012745,"lng":-99.128318,"fechaAlta":"2025-04"}},{"type":"Feature","geometry":{"type":"Point","coordinates":[-99.25948475,19.30576535]},"properties":{"id":"11672995","nombre":"PRODUCTOS DE BELLEZA BERENICE","giro":"perfumeria","scian":"465111","personalOcupado":"0 a 5 personas","direccion":"AVENIDA SAN JERONIMO SN","colonia":"EL OCOTAL","codigoPostal":"10630","alcaldia":"La Magdalena Contreras","lat":19.30576535,"lng":-99.25948475,"fechaAlta":"2024-11"}},{"type":"Feature","geometry":{"type":"Point","coordinates":[-99.12642839,19.42849772]},"properties":{"id":"11809782","nombre":"HILDA IMPORT","giro":"perfumeria","scian":"465111","personalOcupado":"0 a 5 personas","direccion":"CALLE SANTO TOMAS 27","colonia":"CENTRO","codigoPostal":"06000","alcaldia":"Cuauhtémoc","lat":19.42849772,"lng":-99.12642839,"fechaAlta":"2025-04"}},{"type":"Feature","geometry":{"type":"Point","coordinates":[-99.10530006,19.25928702]},"properties":{"id":"994114","nombre":"PRODUCTOS DE BELLEZA BELLISIMA","giro":"perfumeria","scian":"465111","personalOcupado":"0 a 5 personas","direccion":"CALLE MORELOS 109","colonia":"SAN PEDRO","codigoPostal":"16090","alcaldia":"Xochimilco","lat":19.25928702,"lng":-99.10530006,"fechaAlta":"2010-07"}},{"type":"Feature","geometry":{"type":"Point","coordinates":[-99.12532378,19.44023556]},"properties":{"id":"886798","nombre":"HU ROUHAO INTERNACIONAL","giro":"perfumeria","scian":"465111","personalOcupado":"0 a 5 personas","direccion":"CALLE MANUEL DE LA PEA Y PEA 28","colonia":"CENTRO","codigoPostal":"06020","alcaldia":"Cuauhtémoc","lat":19.44023556,"lng":-99.12532378,"fechaAlta":"2014-12"}},{"type":"Feature","geometry":{"type":"Point","coordinates":[-99.18169539,19.29537261]},"properties":{"id":"7729034","nombre":"HUMME SCENT BOUTIQUE","giro":"perfumeria","scian":"465111","personalOcupado":"0 a 5 personas","direccion":"AVENIDA SAN FERNANDO 625","colonia":"PEA POBRE","codigoPostal":"14060","alcaldia":"Tlalpan","lat":19.29537261,"lng":-99.18169539,"fechaAlta":"2019-11"}},{"type":"Feature","geometry":{"type":"Point","coordinates":[-99.15424284999999,19.32957568]},"properties":{"id":"10076547","nombre":"HOUSE OF BEAUTY","giro":"perfumeria","scian":"465111","personalOcupado":"0 a 5 personas","direccion":"AVENIDA AZTECAS 270","colonia":"LA CANDELARIA","codigoPostal":"04380","alcaldia":"Coyoacán","lat":19.32957568,"lng":-99.15424284999999,"fechaAlta":"2024-11"}},{"type":"Feature","geometry":{"type":"Point","coordinates":[-99.12645595,19.4299939]},"properties":{"id":"9648315","nombre":"HANNA EXTENSIONES","giro":"perfumeria","scian":"465111","personalOcupado":"0 a 5 personas","direccion":"CALLE MANZANARES 12","colonia":"CENTRO","codigoPostal":"06060","alcaldia":"Cuauhtémoc","lat":19.4299939,"lng":-99.12645595,"fechaAlta":"2024-11"}},{"type":"Feature","geometry":{"type":"Point","coordinates":[-99.12592103,19.44036808]},"properties":{"id":"10150849","nombre":"HAI YUAN","giro":"perfumeria","scian":"465111","personalOcupado":"0 a 5 personas","direccion":"CALLE GONZALEZ ORTEGA 10","colonia":"CENTRO","codigoPostal":"06020","alcaldia":"Cuauhtémoc","lat":19.44036808,"lng":-99.12592103,"fechaAlta":"2024-11"}},{"type":"Feature","geometry":{"type":"Point","coordinates":[-99.12725711,19.43076929]},"properties":{"id":"999836","nombre":"PRODUCTOS DE BELLEZA ANA","giro":"perfumeria","scian":"465111","personalOcupado":"6 a 10 personas","direccion":"CALLE ALHONDIGA 28","colonia":"CENTRO","codigoPostal":"06060","alcaldia":"Cuauhtémoc","lat":19.43076929,"lng":-99.12725711,"fechaAlta":"2010-07"}},{"type":"Feature","geometry":{"type":"Point","coordinates":[-99.1295687,19.43548042]},"properties":{"id":"9192422","nombre":"HAIR AND COLORS","giro":"perfumeria","scian":"465111","personalOcupado":"0 a 5 personas","direccion":"CALLE CALLE DEL CARMEN 19","colonia":"CENTRO","codigoPostal":"06020","alcaldia":"Cuauhtémoc","lat":19.43548042,"lng":-99.1295687,"fechaAlta":"2019-11"}},{"type":"Feature","geometry":{"type":"Point","coordinates":[-99.11662911,19.47717947]},"properties":{"id":"11438457","nombre":"PRODUCTOS DE BELLEZA ALPHA OMEGA","giro":"perfumeria","scian":"465111","personalOcupado":"0 a 5 personas","direccion":"EJE VIAL 4 NORTE AVENIDA TALISMAN SN","colonia":"ESTRELLA","codigoPostal":"07810","alcaldia":"Gustavo A. Madero","lat":19.47717947,"lng":-99.11662911,"fechaAlta":"2024-11"}},{"type":"Feature","geometry":{"type":"Point","coordinates":[-99.21195975,19.47265596]},"properties":{"id":"652326","nombre":"GYLYS PRODUCTOS DE BELLEZA","giro":"perfumeria","scian":"465111","personalOcupado":"0 a 5 personas","direccion":"AVENIDA CALZADA DE LA NARANJA 747","colonia":"SANTIAGO AHUIZOTLA","codigoPostal":"02750","alcaldia":"Azcapotzalco","lat":19.47265596,"lng":-99.21195975,"fechaAlta":"2010-07"}},{"type":"Feature","geometry":{"type":"Point","coordinates":[-99.04330192,19.31218353]},"properties":{"id":"10605150","nombre":"PRODUCTOS DE BELLEZA ALMA BELLA","giro":"perfumeria","scian":"465111","personalOcupado":"0 a 5 personas","direccion":"CALLE XOLA SN","colonia":"LA ESTACION","codigoPostal":"13319","alcaldia":"Tláhuac","lat":19.31218353,"lng":-99.04330192,"fechaAlta":"2024-11"}},{"type":"Feature","geometry":{"type":"Point","coordinates":[-99.12737745,19.4299011]},"properties":{"id":"7756927","nombre":"H2O NAILS","giro":"perfumeria","scian":"465111","personalOcupado":"6 a 10 personas","direccion":"CALLE TALAVERA 0","colonia":"CENTRO","codigoPostal":"06020","alcaldia":"Cuauhtémoc","lat":19.4299011,"lng":-99.12737745,"fechaAlta":"2019-11"}},{"type":"Feature","geometry":{"type":"Point","coordinates":[-99.16297919000002,19.46710577]},"properties":{"id":"684229","nombre":"PRODUCTOS DE BELLEZA ALMA","giro":"perfumeria","scian":"465111","personalOcupado":"0 a 5 personas","direccion":"CALLE TORONJIL SN","colonia":"IGNACIO ALLENDE","codigoPostal":"02810","alcaldia":"Azcapotzalco","lat":19.46710577,"lng":-99.16297919000002,"fechaAlta":"2014-12"}},{"type":"Feature","geometry":{"type":"Point","coordinates":[-99.12578492,19.44010948]},"properties":{"id":"11525503","nombre":"HAN XIAO XIAO","giro":"perfumeria","scian":"465111","personalOcupado":"6 a 10 personas","direccion":"CALLE MANUEL DE LA PEA Y PEA 27","colonia":"CENTRO","codigoPostal":"06020","alcaldia":"Cuauhtémoc","lat":19.44010948,"lng":-99.12578492,"fechaAlta":"2024-11"}},{"type":"Feature","geometry":{"type":"Point","coordinates":[-99.06506901,19.34435827]},"properties":{"id":"11779964","nombre":"PRODUCTOS DE BELLEZA ARA","giro":"perfumeria","scian":"465111","personalOcupado":"0 a 5 personas","direccion":"AVENIDA DEL ROSAL SN","colonia":"LOS NGELES","codigoPostal":"09830","alcaldia":"Iztapalapa","lat":19.34435827,"lng":-99.06506901,"fechaAlta":"2025-04"}},{"type":"Feature","geometry":{"type":"Point","coordinates":[-99.12737745,19.4299011]},"properties":{"id":"7756975","nombre":"HANDAL","giro":"perfumeria","scian":"465111","personalOcupado":"0 a 5 personas","direccion":"CALLE TALAVERA 0","colonia":"CENTRO","codigoPostal":"06020","alcaldia":"Cuauhtémoc","lat":19.4299011,"lng":-99.12737745,"fechaAlta":"2019-11"}},{"type":"Feature","geometry":{"type":"Point","coordinates":[-99.06685053,19.29113703]},"properties":{"id":"8554952","nombre":"PRODUCTOS DE BELLEZA ANTONIO","giro":"perfumeria","scian":"465111","personalOcupado":"0 a 5 personas","direccion":"CALLE GUACEPIL SN","colonia":"CELOALLIOTLI","codigoPostal":"09960","alcaldia":"Iztapalapa","lat":19.29113703,"lng":-99.06685053,"fechaAlta":"2019-11"}},{"type":"Feature","geometry":{"type":"Point","coordinates":[-99.12888276,19.43451249]},"properties":{"id":"7757293","nombre":"HAIR LINE","giro":"perfumeria","scian":"465111","personalOcupado":"0 a 5 personas","direccion":"CALLE REPUBLICA DE GUATEMALA 76","colonia":"CENTRO","codigoPostal":"06020","alcaldia":"Cuauhtémoc","lat":19.43451249,"lng":-99.12888276,"fechaAlta":"2019-11"}},{"type":"Feature","geometry":{"type":"Point","coordinates":[-99.03813176,19.28865663]},"properties":{"id":"10740867","nombre":"PRODUCTOS DE BELLEZA ANTONI","giro":"perfumeria","scian":"465111","personalOcupado":"0 a 5 personas","direccion":"CALLE IGNACIO MOLINA SN","colonia":"LA CONCHITA","codigoPostal":"13360","alcaldia":"Tláhuac","lat":19.28865663,"lng":-99.03813176,"fechaAlta":"2024-11"}},{"type":"Feature","geometry":{"type":"Point","coordinates":[-99.16476199,19.31466535]},"properties":{"id":"7718314","nombre":"HAITS","giro":"perfumeria","scian":"465111","personalOcupado":"0 a 5 personas","direccion":"CALLE NEZAHUALPILLI 33","colonia":"AJUSCO","codigoPostal":"04300","alcaldia":"Coyoacán","lat":19.31466535,"lng":-99.16476199,"fechaAlta":"2019-11"}},{"type":"Feature","geometry":{"type":"Point","coordinates":[-99.06127104,19.33579093]},"properties":{"id":"722896","nombre":"PRODUCTOS DE BELLEZA ANAHI","giro":"perfumeria","scian":"465111","personalOcupado":"0 a 5 personas","direccion":"AVENIDA BENITO JUAREZ 47","colonia":"PRESIDENTES DE MXICO","codigoPostal":"09740","alcaldia":"Iztapalapa","lat":19.33579093,"lng":-99.06127104,"fechaAlta":"2014-12"}},{"type":"Feature","geometry":{"type":"Point","coordinates":[-99.14115273,19.53884083]},"properties":{"id":"8184064","nombre":"HAPPY NAILS","giro":"perfumeria","scian":"465111","personalOcupado":"0 a 5 personas","direccion":"CALLE RAFAEL RAMIREZ 10","colonia":"ZONA ESCOLAR ORIENTE","codigoPostal":"07230","alcaldia":"Gustavo A. Madero","lat":19.53884083,"lng":-99.14115273,"fechaAlta":"2019-11"}},{"type":"Feature","geometry":{"type":"Point","coordinates":[-99.18624437,19.28655548]},"properties":{"id":"855405","nombre":"PRODUCTOS DE BELLEZA BBSA","giro":"perfumeria","scian":"465111","personalOcupado":"0 a 5 personas","direccion":"CALLE GUADALAJARA 157","colonia":"MIGUEL HIDALGO","codigoPostal":"14260","alcaldia":"Tlalpan","lat":19.28655548,"lng":-99.18624437,"fechaAlta":"2010-07"}},{"type":"Feature","geometry":{"type":"Point","coordinates":[-99.14011974000002,19.42662484]},"properties":{"id":"11099934","nombre":"HAPPY NAILS","giro":"perfumeria","scian":"465111","personalOcupado":"0 a 5 personas","direccion":"AVENIDA JOSE MARIA IZAZAGA 38","colonia":"CENTRO","codigoPostal":"06500","alcaldia":"Cuauhtémoc","lat":19.42662484,"lng":-99.14011974000002,"fechaAlta":"2024-11"}},{"type":"Feature","geometry":{"type":"Point","coordinates":[-99.06685053,19.29113703]},"properties":{"id":"10012178","nombre":"PRODUCTOS DE BELLEZA AVE FENIX","giro":"perfumeria","scian":"465111","personalOcupado":"0 a 5 personas","direccion":"CALLE GUACEPIL SN","colonia":"CELOALLIOTLI","codigoPostal":"09960","alcaldia":"Iztapalapa","lat":19.29113703,"lng":-99.06685053,"fechaAlta":"2024-11"}},{"type":"Feature","geometry":{"type":"Point","coordinates":[-99.22820958,19.28248207]},"properties":{"id":"853675","nombre":"PRODUCTOS DE BELLEZA ARTICULOS PARA BEBE Y SANITARIOS","giro":"perfumeria","scian":"465111","personalOcupado":"0 a 5 personas","direccion":"CALLE TIXPEUAL SN","colonia":"TORRES DE PADIERNA","codigoPostal":"14209","alcaldia":"Tlalpan","lat":19.28248207,"lng":-99.22820958,"fechaAlta":"2010-07"}},{"type":"Feature","geometry":{"type":"Point","coordinates":[-99.22045264,19.31437351]},"properties":{"id":"9315183","nombre":"GRUPO SORDO MADALENO JUGUETERIA HAMLEYS","giro":"perfumeria","scian":"465111","personalOcupado":"0 a 5 personas","direccion":"PERIFERICO BOULEVARD ADOLFO RUIZ CORTINES 3720","colonia":"JARDINES DEL PEDREGAL","codigoPostal":"01900","alcaldia":"Álvaro Obregón","lat":19.31437351,"lng":-99.22045264,"fechaAlta":"2026-04"}},{"type":"Feature","geometry":{"type":"Point","coordinates":[-99.12673735,19.44024748]},"properties":{"id":"12330010","nombre":"GUANGDA COSMETICOS","giro":"perfumeria","scian":"465111","personalOcupado":"11 a 30 personas","direccion":"CALLE MANUEL DE LA PEA Y PEA 14","colonia":"CENTRO","codigoPostal":"06020","alcaldia":"Cuauhtémoc","lat":19.44024748,"lng":-99.12673735,"fechaAlta":"2026-04"}},{"type":"Feature","geometry":{"type":"Point","coordinates":[-99.28859959,19.37505657]},"properties":{"id":"8386627","nombre":"PRODUCTOS DE BELLEZA ALEBRIJE","giro":"perfumeria","scian":"465111","personalOcupado":"0 a 5 personas","direccion":"CALLE EBANO 9","colonia":"EL BANO","codigoPostal":"05219","alcaldia":"Cuajimalpa de Morelos","lat":19.37505657,"lng":-99.28859959,"fechaAlta":"2019-11"}},{"type":"Feature","geometry":{"type":"Point","coordinates":[-99.12733102,19.43060042]},"properties":{"id":"6318136","nombre":"GRUPO LA BELLEZA CENTRO","giro":"perfumeria","scian":"465111","personalOcupado":"0 a 5 personas","direccion":"CALLE ALHNDIGA 27","colonia":"CENTRO","codigoPostal":"06060","alcaldia":"Cuauhtémoc","lat":19.43060042,"lng":-99.12733102,"fechaAlta":"2010-07"}},{"type":"Feature","geometry":{"type":"Point","coordinates":[-99.06574374000002,19.4534851]},"properties":{"id":"7714728","nombre":"PRODUCTOS DE BELLEZA ADRILI","giro":"perfumeria","scian":"465111","personalOcupado":"0 a 5 personas","direccion":"CALLE 625 132","colonia":"SAN JUAN DE ARAGN IV SECCIN","codigoPostal":"07979","alcaldia":"Gustavo A. Madero","lat":19.4534851,"lng":-99.06574374000002,"fechaAlta":"2019-11"}},{"type":"Feature","geometry":{"type":"Point","coordinates":[-99.12730272,19.43080478]},"properties":{"id":"6308785","nombre":"GRUPO LA BELLEZA L-25","giro":"perfumeria","scian":"465111","personalOcupado":"0 a 5 personas","direccion":"CALLE ALHNDIGA 25","colonia":"CENTRO","codigoPostal":"06060","alcaldia":"Cuauhtémoc","lat":19.43080478,"lng":-99.12730272,"fechaAlta":"2010-07"}},{"type":"Feature","geometry":{"type":"Point","coordinates":[-99.10572743,19.39364061]},"properties":{"id":"9996091","nombre":"PRODUCTOS DE BELLEZA 165","giro":"perfumeria","scian":"465111","personalOcupado":"0 a 5 personas","direccion":"CALLE SUR 117 A 139","colonia":"JUVENTINO ROSAS","codigoPostal":"08720","alcaldia":"Iztacalco","lat":19.39364061,"lng":-99.10572743,"fechaAlta":"2024-11"}},{"type":"Feature","geometry":{"type":"Point","coordinates":[-99.12673735,19.44024748]},"properties":{"id":"9088963","nombre":"GRUPO JINRUN","giro":"perfumeria","scian":"465111","personalOcupado":"6 a 10 personas","direccion":"CALLE MANUEL DE LA PEA Y PEA 14","colonia":"CENTRO","codigoPostal":"06020","alcaldia":"Cuauhtémoc","lat":19.44024748,"lng":-99.12673735,"fechaAlta":"2019-11"}},{"type":"Feature","geometry":{"type":"Point","coordinates":[-99.11344578000002,19.36523773]},"properties":{"id":"11156309","nombre":"PRODUCTOS DE BELLE-ZA","giro":"perfumeria","scian":"465111","personalOcupado":"0 a 5 personas","direccion":"AVENIDA AGUSTIN YAEZ 1674","colonia":"ESCUADRN 201","codigoPostal":"09060","alcaldia":"Iztapalapa","lat":19.36523773,"lng":-99.11344578000002,"fechaAlta":"2024-11"}},{"type":"Feature","geometry":{"type":"Point","coordinates":[-99.12723879,19.43091607]},"properties":{"id":"6318138","nombre":"GRUPO LA BELLEZA ALHONDIGA","giro":"perfumeria","scian":"465111","personalOcupado":"0 a 5 personas","direccion":"CALLE ALHNDIGA 26","colonia":"CENTRO","codigoPostal":"06060","alcaldia":"Cuauhtémoc","lat":19.43091607,"lng":-99.12723879,"fechaAlta":"2010-07"}},{"type":"Feature","geometry":{"type":"Point","coordinates":[-99.06652391,19.33172089]},"properties":{"id":"7192540","nombre":"PRODUCTOS DE BELLEZA","giro":"perfumeria","scian":"465111","personalOcupado":"0 a 5 personas","direccion":"CALLE ORION 6","colonia":"CASA BLANCA","codigoPostal":"09860","alcaldia":"Iztapalapa","lat":19.33172089,"lng":-99.06652391,"fechaAlta":"2019-11"}},{"type":"Feature","geometry":{"type":"Point","coordinates":[-99.1550265,19.29526856]},"properties":{"id":"6308786","nombre":"GRUPO LA BELLEZA TLALPAN","giro":"perfumeria","scian":"465111","personalOcupado":"0 a 5 personas","direccion":"CALZADA CALZADA DE TLALPAN 4456","colonia":"BELISARIO DOMNGUEZ SECCIN XVI","codigoPostal":"14050","alcaldia":"Tlalpan","lat":19.29526856,"lng":-99.1550265,"fechaAlta":"2010-07"}},{"type":"Feature","geometry":{"type":"Point","coordinates":[-99.01317531,19.25323545]},"properties":{"id":"7632321","nombre":"PRODUCTOS DE BELLEZA ALE","giro":"perfumeria","scian":"465111","personalOcupado":"0 a 5 personas","direccion":"CALLE JOSEFA ORTIZ DE DOMINGUEZ 68","colonia":"CALYEQUITA","codigoPostal":"16700","alcaldia":"Xochimilco","lat":19.25323545,"lng":-99.01317531,"fechaAlta":"2019-11"}},{"type":"Feature","geometry":{"type":"Point","coordinates":[-99.12420914,19.31200038]},"properties":{"id":"982429","nombre":"GRUPO PROBEL","giro":"perfumeria","scian":"465111","personalOcupado":"6 a 10 personas","direccion":"EJE VIAL 2 ORIENTE AVENIDA CANAL DE MIRAMONTES 2829","colonia":"JARDINES DE COYOACN","codigoPostal":"04890","alcaldia":"Coyoacán","lat":19.31200038,"lng":-99.12420914,"fechaAlta":"2010-07"}},{"type":"Feature","geometry":{"type":"Point","coordinates":[-99.08144044,19.47618685]},"properties":{"id":"8278016","nombre":"PRODUCTOS DE BELLEZA ALANA","giro":"perfumeria","scian":"465111","personalOcupado":"0 a 5 personas","direccion":"CALLE PUERTO TAMPICO 158","colonia":"AMPLIACIN CASAS ALEMN","codigoPostal":"07580","alcaldia":"Gustavo A. Madero","lat":19.47618685,"lng":-99.08144044,"fechaAlta":"2019-11"}},{"type":"Feature","geometry":{"type":"Point","coordinates":[-99.12800848,19.43017452]},"properties":{"id":"6318135","nombre":"GRUPO LA BELLEZA MANZANARES","giro":"perfumeria","scian":"465111","personalOcupado":"0 a 5 personas","direccion":"CALLE MANZANARES 15","colonia":"CENTRO","codigoPostal":"06060","alcaldia":"Cuauhtémoc","lat":19.43017452,"lng":-99.12800848,"fechaAlta":"2010-07"}},{"type":"Feature","geometry":{"type":"Point","coordinates":[-98.99514049,19.28622269]},"properties":{"id":"11136584","nombre":"PRODUCTOS DE BELLEZA ALAN ALEXIS","giro":"perfumeria","scian":"465111","personalOcupado":"0 a 5 personas","direccion":"CALLE LAGUNA DEL ENSUEO 15","colonia":"AMPLIACION SELENE","codigoPostal":"13430","alcaldia":"Tláhuac","lat":19.28622269,"lng":-98.99514049,"fechaAlta":"2024-11"}},{"type":"Feature","geometry":{"type":"Point","coordinates":[-99.12765756,19.43101345]},"properties":{"id":"6319688","nombre":"GRUPO LA BELLEZA MATRIZ CORREGIDORA","giro":"perfumeria","scian":"465111","personalOcupado":"6 a 10 personas","direccion":"CALLE CORREGIDORA 59","colonia":"CENTRO","codigoPostal":"06060","alcaldia":"Cuauhtémoc","lat":19.43101345,"lng":-99.12765756,"fechaAlta":"2010-07"}},{"type":"Feature","geometry":{"type":"Point","coordinates":[-99.04589422000001,19.29348235]},"properties":{"id":"11549433","nombre":"PRODUCTOS DE BELLEZA AISHA","giro":"perfumeria","scian":"465111","personalOcupado":"0 a 5 personas","direccion":"CALLE LA GIOCONDA 19","colonia":"MIGUEL HIDALGO","codigoPostal":"13200","alcaldia":"Tláhuac","lat":19.29348235,"lng":-99.04589422000001,"fechaAlta":"2024-11"}},{"type":"Feature","geometry":{"type":"Point","coordinates":[-99.1668121,19.3309315]},"properties":{"id":"996893","nombre":"PRODUCTOS DE BELLEZA ALICIA","giro":"perfumeria","scian":"465111","personalOcupado":"0 a 5 personas","direccion":"AVENIDA ESCUINAPA 197","colonia":"PEDREGAL DE SANTO DOMINGO","codigoPostal":"04369","alcaldia":"Coyoacán","lat":19.3309315,"lng":-99.1668121,"fechaAlta":"2010-07"}},{"type":"Feature","geometry":{"type":"Point","coordinates":[-99.1399527,19.4263876]},"properties":{"id":"9647364","nombre":"GX PERFUMERIA","giro":"perfumeria","scian":"465111","personalOcupado":"0 a 5 personas","direccion":"AVENIDA JOSE MARIA IZAZAGA 29","colonia":"CENTRO","codigoPostal":"06080","alcaldia":"Cuauhtémoc","lat":19.4263876,"lng":-99.1399527,"fechaAlta":"2024-11"}},{"type":"Feature","geometry":{"type":"Point","coordinates":[-99.03241002,19.33504263]},"properties":{"id":"10412395","nombre":"PRODUCTOS DE BELLEZA ALEXA","giro":"perfumeria","scian":"465111","personalOcupado":"0 a 5 personas","direccion":"AVENIDA DE LAS MINAS 100","colonia":"BUENAVISTA","codigoPostal":"09700","alcaldia":"Iztapalapa","lat":19.33504263,"lng":-99.03241002,"fechaAlta":"2024-11"}},{"type":"Feature","geometry":{"type":"Point","coordinates":[-99.12759118,19.43100548]},"properties":{"id":"9744175","nombre":"GRUPO BNN","giro":"perfumeria","scian":"465111","personalOcupado":"0 a 5 personas","direccion":"CALLE CORREGIDORA 59","colonia":"CENTRO","codigoPostal":"06060","alcaldia":"Cuauhtémoc","lat":19.43100548,"lng":-99.12759118,"fechaAlta":"2024-11"}},{"type":"Feature","geometry":{"type":"Point","coordinates":[-99.08043129,19.47602167]},"properties":{"id":"7714925","nombre":"GRUPO AMERICANO DE SALUD Y BELLEZA","giro":"perfumeria","scian":"465111","personalOcupado":"0 a 5 personas","direccion":"CALLE PUERTO TAMPICO 62","colonia":"AMPLIACIN CASAS ALEMN","codigoPostal":"07580","alcaldia":"Gustavo A. Madero","lat":19.47602167,"lng":-99.08043129,"fechaAlta":"2019-11"}},{"type":"Feature","geometry":{"type":"Point","coordinates":[-99.04966283,19.32326602]},"properties":{"id":"8938394","nombre":"PRODUCTOS DE BELLEZA","giro":"perfumeria","scian":"465111","personalOcupado":"0 a 5 personas","direccion":"CALLE ATLIXCO 11","colonia":"LA POLVORILLA","codigoPostal":"09750","alcaldia":"Iztapalapa","lat":19.32326602,"lng":-99.04966283,"fechaAlta":"2019-11"}},{"type":"Feature","geometry":{"type":"Point","coordinates":[-99.12928481,19.43445133]},"properties":{"id":"9122233","nombre":"GRUPO AZALIE","giro":"perfumeria","scian":"465111","personalOcupado":"11 a 30 personas","direccion":"CALLE REPUBLICA DE GUATEMALA 75","colonia":"CENTRO","codigoPostal":"06060","alcaldia":"Cuauhtémoc","lat":19.43445133,"lng":-99.12928481,"fechaAlta":"2019-11"}},{"type":"Feature","geometry":{"type":"Point","coordinates":[-99.06491868,19.29482264]},"properties":{"id":"8306378","nombre":"PRODUCTOS DE BELLEZA","giro":"perfumeria","scian":"465111","personalOcupado":"0 a 5 personas","direccion":"CALLE NUBE 37","colonia":"LA PLANTA","codigoPostal":"09830","alcaldia":"Iztapalapa","lat":19.29482264,"lng":-99.06491868,"fechaAlta":"2019-11"}},{"type":"Feature","geometry":{"type":"Point","coordinates":[-99.13937057,19.3967005]},"properties":{"id":"7805244","nombre":"GRANDE DE LEIM","giro":"perfumeria","scian":"465111","personalOcupado":"11 a 30 personas","direccion":"CALLE 5 DE FEBRERO 723","colonia":"ALAMOS","codigoPostal":"03400","alcaldia":"Benito Juárez","lat":19.3967005,"lng":-99.13937057,"fechaAlta":"2019-11"}},{"type":"Feature","geometry":{"type":"Point","coordinates":[-99.06646568,19.34469185]},"properties":{"id":"8629776","nombre":"PRODUCTOS DE BELLEZA","giro":"perfumeria","scian":"465111","personalOcupado":"0 a 5 personas","direccion":"AVENIDA DEL ROSAL SN","colonia":"LOS NGELES","codigoPostal":"09830","alcaldia":"Iztapalapa","lat":19.34469185,"lng":-99.06646568,"fechaAlta":"2019-11"}},{"type":"Feature","geometry":{"type":"Point","coordinates":[-99.12737745,19.4299011]},"properties":{"id":"7756929","nombre":"GREEN FASHION","giro":"perfumeria","scian":"465111","personalOcupado":"0 a 5 personas","direccion":"CALLE TALAVERA 0","colonia":"CENTRO","codigoPostal":"06020","alcaldia":"Cuauhtémoc","lat":19.4299011,"lng":-99.12737745,"fechaAlta":"2019-11"}},{"type":"Feature","geometry":{"type":"Point","coordinates":[-99.016273,19.337288]},"properties":{"id":"8635816","nombre":"PRODUCTOS DE BELLEZA","giro":"perfumeria","scian":"465111","personalOcupado":"0 a 5 personas","direccion":"CALLE 3 20","colonia":"XALPA","codigoPostal":"09640","alcaldia":"Iztapalapa","lat":19.337288,"lng":-99.016273,"fechaAlta":"2019-11"}},{"type":"Feature","geometry":{"type":"Point","coordinates":[-99.05872752,19.32957661]},"properties":{"id":"832655","nombre":"PRODUCTOS DE BELLEZA","giro":"perfumeria","scian":"465111","personalOcupado":"0 a 5 personas","direccion":"CALLE GREGORIO SOSA SN","colonia":"CONSEJO AGRARISTA MEXICANO","codigoPostal":"09760","alcaldia":"Iztapalapa","lat":19.32957661,"lng":-99.05872752,"fechaAlta":"2014-12"}},{"type":"Feature","geometry":{"type":"Point","coordinates":[-99.13277663,19.42798289]},"properties":{"id":"11418689","nombre":"GOLDEN NAILS","giro":"perfumeria","scian":"465111","personalOcupado":"0 a 5 personas","direccion":"AVENIDA JOSE MARIA PINO SUAREZ 41","colonia":"CENTRO","codigoPostal":"06090","alcaldia":"Cuauhtémoc","lat":19.42798289,"lng":-99.13277663,"fechaAlta":"2024-11"}},{"type":"Feature","geometry":{"type":"Point","coordinates":[-99.0649505,19.33448374]},"properties":{"id":"11635735","nombre":"PRODUCTOS DE BELLEZA","giro":"perfumeria","scian":"465111","personalOcupado":"0 a 5 personas","direccion":"CALLE CANAL DE GARAY 2","colonia":"SAN JUAN JOYA","codigoPostal":"09830","alcaldia":"Iztapalapa","lat":19.33448374,"lng":-99.0649505,"fechaAlta":"2024-11"}},{"type":"Feature","geometry":{"type":"Point","coordinates":[-99.12743684,19.44274393]},"properties":{"id":"11468451","nombre":"GRONOBIL","giro":"perfumeria","scian":"465111","personalOcupado":"6 a 10 personas","direccion":"CALLE FLORIDA 40","colonia":"MORELOS","codigoPostal":"06200","alcaldia":"Cuauhtémoc","lat":19.44274393,"lng":-99.12743684,"fechaAlta":"2024-11"}},{"type":"Feature","geometry":{"type":"Point","coordinates":[-98.97273167000002,19.32741333]},"properties":{"id":"9656444","nombre":"PRODUCTOS DE BELLEZA","giro":"perfumeria","scian":"465111","personalOcupado":"0 a 5 personas","direccion":"CALLE DALIA 13","colonia":"CAMPESTRE POTRERO","codigoPostal":"09637","alcaldia":"Iztapalapa","lat":19.32741333,"lng":-98.97273167000002,"fechaAlta":"2024-11"}},{"type":"Feature","geometry":{"type":"Point","coordinates":[-99.18341949,19.43376047]},"properties":{"id":"6380432","nombre":"GRUPO ALBADA","giro":"perfumeria","scian":"465111","personalOcupado":"0 a 5 personas","direccion":"CALLE TORCUATO TASSO 237","colonia":"POLANCO V SECCIN","codigoPostal":"11560","alcaldia":"Miguel Hidalgo","lat":19.43376047,"lng":-99.18341949,"fechaAlta":"2014-12"}},{"type":"Feature","geometry":{"type":"Point","coordinates":[-99.08243123000001,19.33851635]},"properties":{"id":"10052834","nombre":"PRODUCTOS DE BELLEZA","giro":"perfumeria","scian":"465111","personalOcupado":"0 a 5 personas","direccion":"CALLE 1 67","colonia":"SAN JUAN XALPA","codigoPostal":"09850","alcaldia":"Iztapalapa","lat":19.33851635,"lng":-99.08243123000001,"fechaAlta":"2024-11"}},{"type":"Feature","geometry":{"type":"Point","coordinates":[-99.1297659,19.4339428]},"properties":{"id":"9635077","nombre":"GRENOVIL PERFUMERIA","giro":"perfumeria","scian":"465111","personalOcupado":"0 a 5 personas","direccion":"CALLE CORREO MAYOR 12","colonia":"CENTRO","codigoPostal":"06060","alcaldia":"Cuauhtémoc","lat":19.4339428,"lng":-99.1297659,"fechaAlta":"2024-11"}},{"type":"Feature","geometry":{"type":"Point","coordinates":[-99.08250792,19.33771172]},"properties":{"id":"8436274","nombre":"PRODUCTOS DE BELLEZA","giro":"perfumeria","scian":"465111","personalOcupado":"0 a 5 personas","direccion":"CALLE 1 SN","colonia":"SAN JUAN XALPA","codigoPostal":"09850","alcaldia":"Iztapalapa","lat":19.33771172,"lng":-99.08250792,"fechaAlta":"2019-11"}},{"type":"Feature","geometry":{"type":"Point","coordinates":[-99.10397083,19.26172437]},"properties":{"id":"8736400","nombre":"GRENOVILLE","giro":"perfumeria","scian":"465111","personalOcupado":"0 a 5 personas","direccion":"CALLE FRANCISCO I MADERO SN","colonia":"EL ROSARIO","codigoPostal":"16070","alcaldia":"Xochimilco","lat":19.26172437,"lng":-99.10397083,"fechaAlta":"2019-11"}},{"type":"Feature","geometry":{"type":"Point","coordinates":[-99.04404469,19.34005415]},"properties":{"id":"10334014","nombre":"PRODUCTOS DE BELLEZA","giro":"perfumeria","scian":"465111","personalOcupado":"0 a 5 personas","direccion":"CALLE GUADALUPE VICTORIA 27","colonia":"SANTA CRUZ MEYEHUALCO","codigoPostal":"09700","alcaldia":"Iztapalapa","lat":19.34005415,"lng":-99.04404469,"fechaAlta":"2024-11"}},{"type":"Feature","geometry":{"type":"Point","coordinates":[-99.09404338,19.32193755]},"properties":{"id":"10950583","nombre":"PRODUCTOS DE BELLEZA","giro":"perfumeria","scian":"465111","personalOcupado":"0 a 5 personas","direccion":"AVENIDA TLAHUAC 4410","colonia":"LOMAS ESTRELLA","codigoPostal":"09890","alcaldia":"Iztapalapa","lat":19.32193755,"lng":-99.09404338,"fechaAlta":"2024-11"}},{"type":"Feature","geometry":{"type":"Point","coordinates":[-99.16167748,19.42508794]},"properties":{"id":"10941590","nombre":"GOGO STORE","giro":"perfumeria","scian":"465111","personalOcupado":"0 a 5 personas","direccion":"CALLE NIZA 66","colonia":"JUREZ","codigoPostal":"06600","alcaldia":"Cuauhtémoc","lat":19.42508794,"lng":-99.16167748,"fechaAlta":"2024-11"}},{"type":"Feature","geometry":{"type":"Point","coordinates":[-99.20226512,19.45275583]},"properties":{"id":"10520259","nombre":"GOLD & BEUTY PROFESIONAL","giro":"perfumeria","scian":"465111","personalOcupado":"0 a 5 personas","direccion":"CALLE LAGO VIEDMA 0","colonia":"MXICO NUEVO","codigoPostal":"11270","alcaldia":"Miguel Hidalgo","lat":19.45275583,"lng":-99.20226512,"fechaAlta":"2024-11"}},{"type":"Feature","geometry":{"type":"Point","coordinates":[-99.05030392,19.36987192]},"properties":{"id":"7832567","nombre":"PRODUCTOS DE BELLEZA","giro":"perfumeria","scian":"465111","personalOcupado":"0 a 5 personas","direccion":"CALLE 4 SN","colonia":"RENOVACIN","codigoPostal":"09209","alcaldia":"Iztapalapa","lat":19.36987192,"lng":-99.05030392,"fechaAlta":"2019-11"}},{"type":"Feature","geometry":{"type":"Point","coordinates":[-99.16611126,19.39138583]},"properties":{"id":"11416875","nombre":"GO VEGAN COSMETIC0S","giro":"perfumeria","scian":"465111","personalOcupado":"0 a 5 personas","direccion":"AVENIDA COYOACAN 425","colonia":"DEL VALLE NORTE","codigoPostal":"03103","alcaldia":"Benito Juárez","lat":19.39138583,"lng":-99.16611126,"fechaAlta":"2024-11"}},{"type":"Feature","geometry":{"type":"Point","coordinates":[-98.99624313,19.35606482]},"properties":{"id":"805456","nombre":"PRODUCTOS DE BELLEZA","giro":"perfumeria","scian":"465111","personalOcupado":"0 a 5 personas","direccion":"CALLE REAL DEL MONTE 29","colonia":"LOMAS DE ZARAGOZA","codigoPostal":"09620","alcaldia":"Iztapalapa","lat":19.35606482,"lng":-98.99624313,"fechaAlta":"2010-07"}},{"type":"Feature","geometry":{"type":"Point","coordinates":[-99.15294736,19.44707323]},"properties":{"id":"8485048","nombre":"GOC MAKE UP","giro":"perfumeria","scian":"465111","personalOcupado":"0 a 5 personas","direccion":"OTRO(ESPECIFIQUE) EJE 1 NORTE MOSQUETA 259","colonia":"BUENAVISTA","codigoPostal":"06350","alcaldia":"Cuauhtémoc","lat":19.44707323,"lng":-99.15294736,"fechaAlta":"2019-11"}},{"type":"Feature","geometry":{"type":"Point","coordinates":[-99.02258562,19.35726593]},"properties":{"id":"11674338","nombre":"PRODUCTOS DE BELLEZA","giro":"perfumeria","scian":"465111","personalOcupado":"0 a 5 personas","direccion":"AVENIDA MEXICO SN","colonia":"SANTA MARA AZTAHUACAN","codigoPostal":"09500","alcaldia":"Iztapalapa","lat":19.35726593,"lng":-99.02258562,"fechaAlta":"2024-11"}},{"type":"Feature","geometry":{"type":"Point","coordinates":[-99.12729127,19.43088752]},"properties":{"id":"889485","nombre":"GLOSS OVER","giro":"perfumeria","scian":"465111","personalOcupado":"0 a 5 personas","direccion":"CALLE ALHONDIGA 25","colonia":"CENTRO","codigoPostal":"06060","alcaldia":"Cuauhtémoc","lat":19.43088752,"lng":-99.12729127,"fechaAlta":"2014-12"}},{"type":"Feature","geometry":{"type":"Point","coordinates":[-99.06377331,19.32853224]},"properties":{"id":"11146081","nombre":"PRODUCTOS DE BELLEZA","giro":"perfumeria","scian":"465111","personalOcupado":"0 a 5 personas","direccion":"CALLE RIO CHURUBUSCO 48","colonia":"PUENTE BLANCO","codigoPostal":"09770","alcaldia":"Iztapalapa","lat":19.32853224,"lng":-99.06377331,"fechaAlta":"2024-11"}},{"type":"Feature","geometry":{"type":"Point","coordinates":[-99.16593908,19.39119217]},"properties":{"id":"6809066","nombre":"GLOSSOVER","giro":"perfumeria","scian":"465111","personalOcupado":"0 a 5 personas","direccion":"CALLE TORRES ADALID 704","colonia":"DEL VALLE NORTE","codigoPostal":"03103","alcaldia":"Benito Juárez","lat":19.39119217,"lng":-99.16593908,"fechaAlta":"2017-11"}},{"type":"Feature","geometry":{"type":"Point","coordinates":[-99.06512545,19.32644799]},"properties":{"id":"831908","nombre":"PRODUCTOS DE BELLEZA","giro":"perfumeria","scian":"465111","personalOcupado":"0 a 5 personas","direccion":"CALLE RIO MIRAMONTES SN","colonia":"PUENTE BLANCO","codigoPostal":"09770","alcaldia":"Iztapalapa","lat":19.32644799,"lng":-99.06512545,"fechaAlta":"2010-07"}},{"type":"Feature","geometry":{"type":"Point","coordinates":[-99.06047994,19.34244055]},"properties":{"id":"835489","nombre":"PRODUCTOS DE BELLEZA","giro":"perfumeria","scian":"465111","personalOcupado":"0 a 5 personas","direccion":"CALLE GIRASOL 50","colonia":"LA ERA","codigoPostal":"09710","alcaldia":"Iztapalapa","lat":19.34244055,"lng":-99.06047994,"fechaAlta":"2010-07"}},{"type":"Feature","geometry":{"type":"Point","coordinates":[-99.00423886,19.26858308]},"properties":{"id":"11364074","nombre":"GLURI COSMETICOS","giro":"perfumeria","scian":"465111","personalOcupado":"0 a 5 personas","direccion":"CALLE SEVERIANO CENICEROS 7","colonia":"LA MAGDALENA","codigoPostal":"13070","alcaldia":"Tláhuac","lat":19.26858308,"lng":-99.00423886,"fechaAlta":"2024-11"}},{"type":"Feature","geometry":{"type":"Point","coordinates":[-99.1299104,19.37265374]},"properties":{"id":"9677215","nombre":"PRODUCTOS DE BELLEZA","giro":"perfumeria","scian":"465111","personalOcupado":"0 a 5 personas","direccion":"EJE VIAL 1 ORIENTE ANDRES MOLINA ENRIQUEZ 120","colonia":"SAN ANDRS TETEPILCO","codigoPostal":"14940","alcaldia":"Iztapalapa","lat":19.37265374,"lng":-99.1299104,"fechaAlta":"2024-11"}},{"type":"Feature","geometry":{"type":"Point","coordinates":[-99.13302042,19.43850914]},"properties":{"id":"10693444","nombre":"GO MAGIC","giro":"perfumeria","scian":"465111","personalOcupado":"0 a 5 personas","direccion":"CALLE REPUBLICA DE COLOMBIA 4","colonia":"CENTRO","codigoPostal":"06010","alcaldia":"Cuauhtémoc","lat":19.43850914,"lng":-99.13302042,"fechaAlta":"2024-11"}},{"type":"Feature","geometry":{"type":"Point","coordinates":[-99.02697771,19.38319224]},"properties":{"id":"7727786","nombre":"PRODUCTOS DE BELLEZA","giro":"perfumeria","scian":"465111","personalOcupado":"0 a 5 personas","direccion":"CALLE NINGUNO SN","colonia":"SAN LORENZO XICOTENCATL","codigoPostal":"09130","alcaldia":"Iztapalapa","lat":19.38319224,"lng":-99.02697771,"fechaAlta":"2019-11"}},{"type":"Feature","geometry":{"type":"Point","coordinates":[-99.13920175,19.5652491]},"properties":{"id":"11775143","nombre":"GLOUR BY ANNY","giro":"perfumeria","scian":"465111","personalOcupado":"0 a 5 personas","direccion":"CALLE TATA NACHO 9","colonia":"COMPOSITORES MEXICANOS","codigoPostal":"07130","alcaldia":"Gustavo A. Madero","lat":19.5652491,"lng":-99.13920175,"fechaAlta":"2025-04"}},{"type":"Feature","geometry":{"type":"Point","coordinates":[-99.07515731,19.30259933]},"properties":{"id":"726994","nombre":"PRODUCTOS DE BELLEZA","giro":"perfumeria","scian":"465111","personalOcupado":"0 a 5 personas","direccion":"CALLE RIO AMAZONAS 1","colonia":"VALLE DE SAN LORENZO","codigoPostal":"09900","alcaldia":"Iztapalapa","lat":19.30259933,"lng":-99.07515731,"fechaAlta":"2014-12"}},{"type":"Feature","geometry":{"type":"Point","coordinates":[-99.17882718,19.4184359]},"properties":{"id":"10271872","nombre":"GLOW BEAUTY BAR","giro":"perfumeria","scian":"465111","personalOcupado":"0 a 5 personas","direccion":"CALLE JUAN DE LA BARRERA 129","colonia":"SAN MIGUEL CHAPULTEPEC II SECCIN","codigoPostal":"11850","alcaldia":"Miguel Hidalgo","lat":19.4184359,"lng":-99.17882718,"fechaAlta":"2024-11"}},{"type":"Feature","geometry":{"type":"Point","coordinates":[-99.07780936,19.32279166]},"properties":{"id":"823450","nombre":"PRODUCTOS DE BELLEZA","giro":"perfumeria","scian":"465111","personalOcupado":"0 a 5 personas","direccion":"CALLE LEBRIJA REFORMA 12","colonia":"CERRO DE LA ESTRELLA","codigoPostal":"09860","alcaldia":"Iztapalapa","lat":19.32279166,"lng":-99.07780936,"fechaAlta":"2010-07"}},{"type":"Feature","geometry":{"type":"Point","coordinates":[-99.18433991,19.4583096]},"properties":{"id":"8780025","nombre":"GLASS ESSENCE","giro":"perfumeria","scian":"465111","personalOcupado":"0 a 5 personas","direccion":"CALZADA MXICO-TACUBA 680","colonia":"TACUBA","codigoPostal":"11410","alcaldia":"Miguel Hidalgo","lat":19.4583096,"lng":-99.18433991,"fechaAlta":"2019-11"}},{"type":"Feature","geometry":{"type":"Point","coordinates":[-99.04426221999998,19.34579481]},"properties":{"id":"800114","nombre":"PRODUCTOS DE BELLEZA","giro":"perfumeria","scian":"465111","personalOcupado":"0 a 5 personas","direccion":"CALLE 55 1","colonia":"SANTA CRUZ MEYEHUALCO","codigoPostal":"09290","alcaldia":"Iztapalapa","lat":19.34579481,"lng":-99.04426221999998,"fechaAlta":"2010-07"}},{"type":"Feature","geometry":{"type":"Point","coordinates":[-99.12503995999998,19.42766126]},"properties":{"id":"8827500","nombre":"GLASS ESSENCE MERCED","giro":"perfumeria","scian":"465111","personalOcupado":"0 a 5 personas","direccion":"CALLE RAMN CORONA 42","colonia":"ZONA CENTRO","codigoPostal":"15810","alcaldia":"Venustiano Carranza","lat":19.42766126,"lng":-99.12503995999998,"fechaAlta":"2019-11"}},{"type":"Feature","geometry":{"type":"Point","coordinates":[-99.06526752,19.33844614]},"properties":{"id":"11160452","nombre":"PRODUCTOS DE BELLEZA","giro":"perfumeria","scian":"465111","personalOcupado":"0 a 5 personas","direccion":"CALLE CANAL DE GARAY SN","colonia":"SAN JUAN JOYA","codigoPostal":"09830","alcaldia":"Iztapalapa","lat":19.33844614,"lng":-99.06526752,"fechaAlta":"2024-11"}},{"type":"Feature","geometry":{"type":"Point","coordinates":[-99.13743789,19.43565122]},"properties":{"id":"6876133","nombre":"GLASS ESSENCE","giro":"perfumeria","scian":"465111","personalOcupado":"0 a 5 personas","direccion":"CALLE TACUBA 24","colonia":"CENTRO","codigoPostal":"06010","alcaldia":"Cuauhtémoc","lat":19.43565122,"lng":-99.13743789,"fechaAlta":"2019-04"}},{"type":"Feature","geometry":{"type":"Point","coordinates":[-98.99970278,19.34590901]},"properties":{"id":"11734269","nombre":"PRODUCTOS DE BELLEZA","giro":"perfumeria","scian":"465111","personalOcupado":"0 a 5 personas","direccion":"AVENIDA MXICO 26","colonia":"IZTLAHUACAN","codigoPostal":"09690","alcaldia":"Iztapalapa","lat":19.34590901,"lng":-98.99970278,"fechaAlta":"2025-04"}},{"type":"Feature","geometry":{"type":"Point","coordinates":[-99.13550219,19.43538009]},"properties":{"id":"6881473","nombre":"GLASS ESSENCE","giro":"perfumeria","scian":"465111","personalOcupado":"0 a 5 personas","direccion":"CALLE TACUBA 66","colonia":"CENTRO","codigoPostal":"06010","alcaldia":"Cuauhtémoc","lat":19.43538009,"lng":-99.13550219,"fechaAlta":"2019-04"}},{"type":"Feature","geometry":{"type":"Point","coordinates":[-98.99101199,19.34781017]},"properties":{"id":"9842202","nombre":"PRODUCTOS DE BELLEZA","giro":"perfumeria","scian":"465111","personalOcupado":"0 a 5 personas","direccion":"CALLE 18 DE MARZO 36","colonia":"SAN MIGUEL TEOTONGO SECCIN TORRES","codigoPostal":"09630","alcaldia":"Iztapalapa","lat":19.34781017,"lng":-98.99101199,"fechaAlta":"2024-11"}},{"type":"Feature","geometry":{"type":"Point","coordinates":[-99.13543889,19.43537204]},"properties":{"id":"6812298","nombre":"GLASS HALL","giro":"perfumeria","scian":"465111","personalOcupado":"0 a 5 personas","direccion":"CALLE TACUBA 90","colonia":"CENTRO","codigoPostal":"06010","alcaldia":"Cuauhtémoc","lat":19.43537204,"lng":-99.13543889,"fechaAlta":"2017-11"}},{"type":"Feature","geometry":{"type":"Point","coordinates":[-99.06301975,19.34586854]},"properties":{"id":"7904666","nombre":"COSMETIC MODA","giro":"perfumeria","scian":"465111","personalOcupado":"0 a 5 personas","direccion":"EJE VIAL 8 SUR CALZADA ERMITA IZTAPALAPA 2340","colonia":"CONSTITUCIN DE 1917","codigoPostal":"09260","alcaldia":"Iztapalapa","lat":19.34586854,"lng":-99.06301975,"fechaAlta":"2019-11"}},{"type":"Feature","geometry":{"type":"Point","coordinates":[-99.11139004,19.30735278]},"properties":{"id":"11592966","nombre":"PRODUCTOS DE BELLEZA","giro":"perfumeria","scian":"465111","personalOcupado":"0 a 5 personas","direccion":"EJE VIAL 3 ORIENTE AVENIDA CAFETALES 22","colonia":"CULHUACN CTM SECCIN X","codigoPostal":"04939","alcaldia":"Coyoacán","lat":19.30735278,"lng":-99.11139004,"fechaAlta":"2024-11"}},{"type":"Feature","geometry":{"type":"Point","coordinates":[-99.07495236,19.41430692]},"properties":{"id":"10328790","nombre":"GLAMOCH","giro":"perfumeria","scian":"465111","personalOcupado":"0 a 5 personas","direccion":"AVENIDA ADOLFO LOPEZ MATEOS SN","colonia":"ADOLFO LPEZ MATEOS","codigoPostal":"15750","alcaldia":"Venustiano Carranza","lat":19.41430692,"lng":-99.07495236,"fechaAlta":"2024-11"}},{"type":"Feature","geometry":{"type":"Point","coordinates":[-99.00518648,19.2687355]},"properties":{"id":"7630856","nombre":"COSMETIC MODA","giro":"perfumeria","scian":"465111","personalOcupado":"0 a 5 personas","direccion":"AVENIDA CALZADA TLAHUAC CHALCO 1","colonia":"SAN MIGUEL","codigoPostal":"15070","alcaldia":"Tláhuac","lat":19.2687355,"lng":-99.00518648,"fechaAlta":"2019-11"}},{"type":"Feature","geometry":{"type":"Point","coordinates":[-99.17201118,19.3357336]},"properties":{"id":"10505133","nombre":"PRODUCTOS DE BELLEZA","giro":"perfumeria","scian":"465111","personalOcupado":"0 a 5 personas","direccion":"EJE VIAL 10 SUR AVENIDA PEDRO ENRIQUEZ UREA SN","colonia":"PEDREGAL DE SANTO DOMINGO","codigoPostal":"04369","alcaldia":"Coyoacán","lat":19.3357336,"lng":-99.17201118,"fechaAlta":"2024-11"}},{"type":"Feature","geometry":{"type":"Point","coordinates":[-99.03597651000001,19.38459553]},"properties":{"id":"11531775","nombre":"COSMETIC FASHION","giro":"perfumeria","scian":"465111","personalOcupado":"0 a 5 personas","direccion":"AVENIDA BATALLON DE ZACAPOAXTLA SN","colonia":"EJRCITO DE ORIENTE","codigoPostal":"09230","alcaldia":"Iztapalapa","lat":19.38459553,"lng":-99.03597651000001,"fechaAlta":"2024-11"}},{"type":"Feature","geometry":{"type":"Point","coordinates":[-99.08177944,19.30743302]},"properties":{"id":"9793235","nombre":"COSMETIC BEAUTY","giro":"perfumeria","scian":"465111","personalOcupado":"0 a 5 personas","direccion":"CALLE 19 6","colonia":"JOS LPEZ PORTILLO","codigoPostal":"09920","alcaldia":"Iztapalapa","lat":19.30743302,"lng":-99.08177944,"fechaAlta":"2024-11"}},{"type":"Feature","geometry":{"type":"Point","coordinates":[-99.13842692,19.43567874]},"properties":{"id":"6876134","nombre":"GLASS ESSENCE","giro":"perfumeria","scian":"465111","personalOcupado":"0 a 5 personas","direccion":"CALLE TACUBA 15","colonia":"CENTRO","codigoPostal":"06010","alcaldia":"Cuauhtémoc","lat":19.43567874,"lng":-99.13842692,"fechaAlta":"2019-04"}},{"type":"Feature","geometry":{"type":"Point","coordinates":[-99.00389054,19.35433198]},"properties":{"id":"8629390","nombre":"PRODUCTOS DE BELLEZA","giro":"perfumeria","scian":"465111","personalOcupado":"0 a 5 personas","direccion":"CALLE CUAUHTEMOC SN","colonia":"SANTIAGO ACAHUALTEPEC","codigoPostal":"09600","alcaldia":"Iztapalapa","lat":19.35433198,"lng":-99.00389054,"fechaAlta":"2019-11"}},{"type":"Feature","geometry":{"type":"Point","coordinates":[-99.13981545,19.43398651]},"properties":{"id":"8939711","nombre":"GLASS ESSENCE","giro":"perfumeria","scian":"465111","personalOcupado":"0 a 5 personas","direccion":"CALLE FRANCISCO I. MADERO 10","colonia":"CENTRO","codigoPostal":"06000","alcaldia":"Cuauhtémoc","lat":19.43398651,"lng":-99.13981545,"fechaAlta":"2019-11"}},{"type":"Feature","geometry":{"type":"Point","coordinates":[-99.03634701,19.37459094]},"properties":{"id":"769599","nombre":"PRODUCTOS DE BELLEZA","giro":"perfumeria","scian":"465111","personalOcupado":"0 a 5 personas","direccion":"CALLE BATALLA ACAPONETA 16","colonia":"LVARO OBREGN","codigoPostal":"09230","alcaldia":"Iztapalapa","lat":19.37459094,"lng":-99.03634701,"fechaAlta":"2010-07"}},{"type":"Feature","geometry":{"type":"Point","coordinates":[-99.11004094,19.35137048]},"properties":{"id":"11627202","nombre":"GLAMS STUDIO","giro":"perfumeria","scian":"465111","personalOcupado":"0 a 5 personas","direccion":"CALLE TROJES 140","colonia":"MINERVA","codigoPostal":"09810","alcaldia":"Iztapalapa","lat":19.35137048,"lng":-99.11004094,"fechaAlta":"2024-11"}},{"type":"Feature","geometry":{"type":"Point","coordinates":[-99.08565211,19.35810529]},"properties":{"id":"11146711","nombre":"COSMETIC SF","giro":"perfumeria","scian":"465111","personalOcupado":"0 a 5 personas","direccion":"EJE VIAL 5 ORIENTE AVENIDA JAVIER ROJO GOMEZ SN","colonia":"SAN MIGUEL","codigoPostal":"09360","alcaldia":"Iztapalapa","lat":19.35810529,"lng":-99.08565211,"fechaAlta":"2024-11"}},{"type":"Feature","geometry":{"type":"Point","coordinates":[-99.21913126,19.47960906]},"properties":{"id":"11028939","nombre":"PRODUCTOS DE BELLEZA","giro":"perfumeria","scian":"465111","personalOcupado":"0 a 5 personas","direccion":"CALLE IGNACIO COMONFORT 137","colonia":"AMPLIACIN SAN PEDRO XALPA","codigoPostal":"02119","alcaldia":"Azcapotzalco","lat":19.47960906,"lng":-99.21913126,"fechaAlta":"2024-11"}},{"type":"Feature","geometry":{"type":"Point","coordinates":[-99.13551279,19.43538143]},"properties":{"id":"11651073","nombre":"GLASS ESSENCE","giro":"perfumeria","scian":"465111","personalOcupado":"0 a 5 personas","direccion":"CALLE TACUBA 66","colonia":"CENTRO","codigoPostal":"06000","alcaldia":"Cuauhtémoc","lat":19.43538143,"lng":-99.13551279,"fechaAlta":"2024-11"}},{"type":"Feature","geometry":{"type":"Point","coordinates":[-99.14045177,19.54489126]},"properties":{"id":"9147415","nombre":"COSMETIC PRODUCTOS NATAKAMI","giro":"perfumeria","scian":"465111","personalOcupado":"0 a 5 personas","direccion":"CALLE CUAUHTEMOC 18","colonia":"CUAUTEPEC DE MADERO","codigoPostal":"07200","alcaldia":"Gustavo A. Madero","lat":19.54489126,"lng":-99.14045177,"fechaAlta":"2019-11"}},{"type":"Feature","geometry":{"type":"Point","coordinates":[-99.1975561,19.49647122]},"properties":{"id":"642935","nombre":"PRODUCTOS DE BELLEZA","giro":"perfumeria","scian":"465111","personalOcupado":"0 a 5 personas","direccion":"CALLE JACARANDAS 569","colonia":"PASTEROS","codigoPostal":"02150","alcaldia":"Azcapotzalco","lat":19.49647122,"lng":-99.1975561,"fechaAlta":"2010-07"}},{"type":"Feature","geometry":{"type":"Point","coordinates":[-99.19167079,19.46121185]},"properties":{"id":"846041","nombre":"COSMETERIA Y JUGUETERIA","giro":"perfumeria","scian":"465111","personalOcupado":"0 a 5 personas","direccion":"CALLE LAGO GASCASONICA 151","colonia":"SAN DIEGO OCOYOACAC","codigoPostal":"11290","alcaldia":"Miguel Hidalgo","lat":19.46121185,"lng":-99.19167079,"fechaAlta":"2010-07"}},{"type":"Feature","geometry":{"type":"Point","coordinates":[-98.99509514,19.23208761]},"properties":{"id":"10701753","nombre":"COSMETCOS Y REGALOS GLITTER SHOP","giro":"perfumeria","scian":"465111","personalOcupado":"0 a 5 personas","direccion":"CALLE EDUCACION TECNOLOGICA 5","colonia":"JAIME TORRES BODET","codigoPostal":"13530","alcaldia":"Tláhuac","lat":19.23208761,"lng":-98.99509514,"fechaAlta":"2024-11"}},{"type":"Feature","geometry":{"type":"Point","coordinates":[-99.09605571,19.41978777]},"properties":{"id":"8268504","nombre":"COSMETCOS SIN NOMBRE","giro":"perfumeria","scian":"465111","personalOcupado":"0 a 5 personas","direccion":"CIRCUITO INTERIOR BOULEVARD PUERTO AEREO SN","colonia":"INDUSTRIAL PUERTO AREO","codigoPostal":"15010","alcaldia":"Venustiano Carranza","lat":19.41978777,"lng":-99.09605571,"fechaAlta":"2019-11"}},{"type":"Feature","geometry":{"type":"Point","coordinates":[-99.04213848,19.31710545]},"properties":{"id":"844252","nombre":"COSMESTICOS","giro":"perfumeria","scian":"465111","personalOcupado":"0 a 5 personas","direccion":"CALLE CAMINO REAL A ZAPOTITLAN 22","colonia":"LA POLVORILLA","codigoPostal":"09705","alcaldia":"Iztapalapa","lat":19.31710545,"lng":-99.04213848,"fechaAlta":"2010-07"}},{"type":"Feature","geometry":{"type":"Point","coordinates":[-99.11060588,19.4362786]},"properties":{"id":"10886550","nombre":"GIRLS COSMETICOS","giro":"perfumeria","scian":"465111","personalOcupado":"0 a 5 personas","direccion":"CALLE ANFORA 71","colonia":"PROGRESISTA","codigoPostal":"15370","alcaldia":"Venustiano Carranza","lat":19.4362786,"lng":-99.11060588,"fechaAlta":"2024-11"}},{"type":"Feature","geometry":{"type":"Point","coordinates":[-99.06630922,19.39061426]},"properties":{"id":"11206488","nombre":"PRODUCTOS DE BELLEZA","giro":"perfumeria","scian":"465111","personalOcupado":"0 a 5 personas","direccion":"ANDADOR MANZANA O EDIFICACION CONTIGUA 49","colonia":"AGRCOLA ORIENTAL","codigoPostal":"08500","alcaldia":"Iztacalco","lat":19.39061426,"lng":-99.06630922,"fechaAlta":"2024-11"}},{"type":"Feature","geometry":{"type":"Point","coordinates":[-99.12875003000002,19.43449551]},"properties":{"id":"9186399","nombre":"GISELLE","giro":"perfumeria","scian":"465111","personalOcupado":"0 a 5 personas","direccion":"CALLE REPUBLICA DE GUATEMALA 76","colonia":"CENTRO","codigoPostal":"06020","alcaldia":"Cuauhtémoc","lat":19.43449551,"lng":-99.12875003000002,"fechaAlta":"2019-11"}},{"type":"Feature","geometry":{"type":"Point","coordinates":[-99.06965552,19.38763434]},"properties":{"id":"9599511","nombre":"PRODUCTOS DE BELLEZA","giro":"perfumeria","scian":"465111","personalOcupado":"0 a 5 personas","direccion":"CALLE SUR 24 148","colonia":"AGRCOLA ORIENTAL","codigoPostal":"08500","alcaldia":"Iztacalco","lat":19.38763434,"lng":-99.06965552,"fechaAlta":"2024-11"}},{"type":"Feature","geometry":{"type":"Point","coordinates":[-99.12654022,19.4471487]},"properties":{"id":"10225058","nombre":"GHETO BARBER","giro":"perfumeria","scian":"465111","personalOcupado":"0 a 5 personas","direccion":"CERRADA PRIMERA RIVERO 115","colonia":"MORELOS","codigoPostal":"06200","alcaldia":"Cuauhtémoc","lat":19.4471487,"lng":-99.12654022,"fechaAlta":"2024-11"}},{"type":"Feature","geometry":{"type":"Point","coordinates":[-99.06262863,19.42477401]},"properties":{"id":"666284","nombre":"PRODUCTOS DE BELLEZA","giro":"perfumeria","scian":"465111","personalOcupado":"0 a 5 personas","direccion":"CALLE NEZAHUALCOYOTL 112","colonia":"ARENAL PRIMERA SECCIN","codigoPostal":"15600","alcaldia":"Venustiano Carranza","lat":19.42477401,"lng":-99.06262863,"fechaAlta":"2014-12"}},{"type":"Feature","geometry":{"type":"Point","coordinates":[-99.13175289,19.43929144]},"properties":{"id":"981875","nombre":"GINU INTERNACIONAL","giro":"perfumeria","scian":"465111","personalOcupado":"6 a 10 personas","direccion":"CALLE REPUBLICA DE BOLIVIA 28","colonia":"CENTRO","codigoPostal":"06000","alcaldia":"Cuauhtémoc","lat":19.43929144,"lng":-99.13175289,"fechaAlta":"2010-07"}},{"type":"Feature","geometry":{"type":"Point","coordinates":[-99.07245825,19.42201585]},"properties":{"id":"10509622","nombre":"PRODUCTOS DE BELLEZA","giro":"perfumeria","scian":"465111","personalOcupado":"0 a 5 personas","direccion":"CALLE ERNESTO P URUCHURTU SN","colonia":"ADOLFO LPEZ MATEOS","codigoPostal":"15670","alcaldia":"Venustiano Carranza","lat":19.42201585,"lng":-99.07245825,"fechaAlta":"2024-11"}},{"type":"Feature","geometry":{"type":"Point","coordinates":[-99.06771354,19.41084901]},"properties":{"id":"10964692","nombre":"GLAM BY LUNA","giro":"perfumeria","scian":"465111","personalOcupado":"0 a 5 personas","direccion":"AVENIDA NORTE 152","colonia":"AGRCOLA PANTITLAN","codigoPostal":"08100","alcaldia":"Iztacalco","lat":19.41084901,"lng":-99.06771354,"fechaAlta":"2024-11"}},{"type":"Feature","geometry":{"type":"Point","coordinates":[-99.20513044000002,19.50291025]},"properties":{"id":"10435696","nombre":"GLAM COSMETICS","giro":"perfumeria","scian":"465111","personalOcupado":"0 a 5 personas","direccion":"AVENIDA AQUILES SERDAN 1025","colonia":"EL ROSARIO","codigoPostal":"02430","alcaldia":"Azcapotzalco","lat":19.50291025,"lng":-99.20513044000002,"fechaAlta":"2024-11"}},{"type":"Feature","geometry":{"type":"Point","coordinates":[-99.12695954,19.38743925]},"properties":{"id":"704709","nombre":"PRODUCTOS DE BELLEZA","giro":"perfumeria","scian":"465111","personalOcupado":"0 a 5 personas","direccion":"CALLE PLAYA TENACATITA 93","colonia":"SANTIAGO SUR","codigoPostal":"08800","alcaldia":"Iztacalco","lat":19.38743925,"lng":-99.12695954,"fechaAlta":"2014-12"}},{"type":"Feature","geometry":{"type":"Point","coordinates":[-99.02257931,19.25884087]},"properties":{"id":"7631848","nombre":"COSITAS Y ALGO MAS","giro":"perfumeria","scian":"465111","personalOcupado":"0 a 5 personas","direccion":"CALLE CUAUHTEMOC 3","colonia":"QUIRINO MENDOZA","codigoPostal":"16710","alcaldia":"Xochimilco","lat":19.25884087,"lng":-99.02257931,"fechaAlta":"2019-11"}},{"type":"Feature","geometry":{"type":"Point","coordinates":[-99.26483541,19.30929467]},"properties":{"id":"930846","nombre":"PRODUCTOS DE BELLEZA","giro":"perfumeria","scian":"465111","personalOcupado":"0 a 5 personas","direccion":"CALLE CARBONERO 25","colonia":"LOMAS DE SAN BERNAB","codigoPostal":"10350","alcaldia":"La Magdalena Contreras","lat":19.30929467,"lng":-99.26483541,"fechaAlta":"2014-12"}},{"type":"Feature","geometry":{"type":"Point","coordinates":[-99.15635434,19.45055115]},"properties":{"id":"10652043","nombre":"COSITAS TETE","giro":"perfumeria","scian":"465111","personalOcupado":"0 a 5 personas","direccion":"CALLE MANUEL CARPIO 99","colonia":"SANTA MARA LA RIBERA","codigoPostal":"06400","alcaldia":"Cuauhtémoc","lat":19.45055115,"lng":-99.15635434,"fechaAlta":"2024-11"}},{"type":"Feature","geometry":{"type":"Point","coordinates":[-99.11373425,19.39070374]},"properties":{"id":"11689308","nombre":"COSAS MARY","giro":"perfumeria","scian":"465111","personalOcupado":"0 a 5 personas","direccion":"CALLE SUR 101 B 193","colonia":"JUVENTINO ROSAS","codigoPostal":"08650","alcaldia":"Iztacalco","lat":19.39070374,"lng":-99.11373425,"fechaAlta":"2024-11"}},{"type":"Feature","geometry":{"type":"Point","coordinates":[-99.12254706999998,19.40894467]},"properties":{"id":"9567589","nombre":"COSA MAS LINDA DISTRIBUIDORA","giro":"perfumeria","scian":"465111","personalOcupado":"0 a 5 personas","direccion":"EJE VIAL 3 SUR MORELOS SN","colonia":"JAMAICA","codigoPostal":"15800","alcaldia":"Venustiano Carranza","lat":19.40894467,"lng":-99.12254706999998,"fechaAlta":"2024-11"}},{"type":"Feature","geometry":{"type":"Point","coordinates":[-99.13604727,19.43220552]},"properties":{"id":"10535953","nombre":"GELDEN Y MAS","giro":"perfumeria","scian":"465111","personalOcupado":"0 a 5 personas","direccion":"CALLE 16 DE SEPTIEMBRE 66","colonia":"CENTRO","codigoPostal":"06000","alcaldia":"Cuauhtémoc","lat":19.43220552,"lng":-99.13604727,"fechaAlta":"2024-11"}},{"type":"Feature","geometry":{"type":"Point","coordinates":[-99.05666407,19.42233423]},"properties":{"id":"666434","nombre":"PRODUCTOS DE BELLEZA","giro":"perfumeria","scian":"465111","personalOcupado":"0 a 5 personas","direccion":"CALLE COXCOX 312","colonia":"ARENAL SEGUNDA SECCIN","codigoPostal":"15680","alcaldia":"Venustiano Carranza","lat":19.42233423,"lng":-99.05666407,"fechaAlta":"2010-07"}},{"type":"Feature","geometry":{"type":"Point","coordinates":[-99.13065682,19.44013839]},"properties":{"id":"8338065","nombre":"GEN","giro":"perfumeria","scian":"465111","personalOcupado":"6 a 10 personas","direccion":"CALLE APARTADO 14","colonia":"CENTRO","codigoPostal":"06010","alcaldia":"Cuauhtémoc","lat":19.44013839,"lng":-99.13065682,"fechaAlta":"2019-11"}},{"type":"Feature","geometry":{"type":"Point","coordinates":[-99.23443521,19.38330546]},"properties":{"id":"11117571","nombre":"COSMELICA","giro":"perfumeria","scian":"465111","personalOcupado":"0 a 5 personas","direccion":"AVENIDA VASCO DE QUIROGA 1474","colonia":"LOMAS DE NUEVO MXICO","codigoPostal":"01250","alcaldia":"Álvaro Obregón","lat":19.38330546,"lng":-99.23443521,"fechaAlta":"2024-11"}},{"type":"Feature","geometry":{"type":"Point","coordinates":[-99.21139743,19.38932682]},"properties":{"id":"10455845","nombre":"PRODUCTOS DE BELLEZA","giro":"perfumeria","scian":"465111","personalOcupado":"0 a 5 personas","direccion":"AVENIDA CAMINO A SANTA FE 163","colonia":"PARASO","codigoPostal":"01130","alcaldia":"Álvaro Obregón","lat":19.38932682,"lng":-99.21139743,"fechaAlta":"2024-11"}},{"type":"Feature","geometry":{"type":"Point","coordinates":[-99.1364905,19.55717541]},"properties":{"id":"9731783","nombre":"GASABE PRODUCTOS DE BELLEZA","giro":"perfumeria","scian":"465111","personalOcupado":"0 a 5 personas","direccion":"CALLE FRANCISCO VILLA 1","colonia":"LOMA LA PALMA","codigoPostal":"07160","alcaldia":"Gustavo A. Madero","lat":19.55717541,"lng":-99.1364905,"fechaAlta":"2024-11"}},{"type":"Feature","geometry":{"type":"Point","coordinates":[-99.18338973,19.39199106]},"properties":{"id":"7254945","nombre":"COSME BISUTERIA","giro":"perfumeria","scian":"465111","personalOcupado":"0 a 5 personas","direccion":"CALLE SIETE 0","colonia":"SAN PEDRO DE LOS PINOS","codigoPostal":"03800","alcaldia":"Benito Juárez","lat":19.39199106,"lng":-99.18338973,"fechaAlta":"2019-11"}},{"type":"Feature","geometry":{"type":"Point","coordinates":[-99.25633582,19.3171598]},"properties":{"id":"10144793","nombre":"PRODUCTOS DE BELLEZA","giro":"perfumeria","scian":"465111","personalOcupado":"0 a 5 personas","direccion":"CALLE 10 DE MAYO 1","colonia":"LAS CRUCES","codigoPostal":"10330","alcaldia":"La Magdalena Contreras","lat":19.3171598,"lng":-99.25633582,"fechaAlta":"2024-11"}},{"type":"Feature","geometry":{"type":"Point","coordinates":[-99.21662538,19.48321148]},"properties":{"id":"10223874","nombre":"GASABE PRODUCTOS DE HIGIENE BELLEZA Y SALUD","giro":"perfumeria","scian":"465111","personalOcupado":"0 a 5 personas","direccion":"CALLE 23 DE ABRIL 50","colonia":"AMPLIACIN SAN PEDRO XALPA","codigoPostal":"02719","alcaldia":"Azcapotzalco","lat":19.48321148,"lng":-99.21662538,"fechaAlta":"2024-11"}},{"type":"Feature","geometry":{"type":"Point","coordinates":[-99.1814845,19.46257159]},"properties":{"id":"10355556","nombre":"COSMAT","giro":"perfumeria","scian":"465111","personalOcupado":"11 a 30 personas","direccion":"CALLE ATENAS 71","colonia":"SAN LVARO","codigoPostal":"02090","alcaldia":"Azcapotzalco","lat":19.46257159,"lng":-99.1814845,"fechaAlta":"2024-11"}},{"type":"Feature","geometry":{"type":"Point","coordinates":[-99.25373041,19.32901112]},"properties":{"id":"928285","nombre":"PRODUCTOS DE BELLEZA","giro":"perfumeria","scian":"465111","personalOcupado":"0 a 5 personas","direccion":"AVENIDA AVENIDA DE LAS TORRES 5","colonia":"TORRES DE POTRERO","codigoPostal":"01840","alcaldia":"Álvaro Obregón","lat":19.32901112,"lng":-99.25373041,"fechaAlta":"2014-12"}},{"type":"Feature","geometry":{"type":"Point","coordinates":[-99.12673735,19.44024748]},"properties":{"id":"11247431","nombre":"COS MALL","giro":"perfumeria","scian":"465111","personalOcupado":"6 a 10 personas","direccion":"CALLE MANUEL DE LA PEA Y PEA 14","colonia":"CENTRO","codigoPostal":"06020","alcaldia":"Cuauhtémoc","lat":19.44024748,"lng":-99.12673735,"fechaAlta":"2024-11"}},{"type":"Feature","geometry":{"type":"Point","coordinates":[-99.23187388999999,19.29562836]},"properties":{"id":"11164300","nombre":"CORSETERIA SANDY","giro":"perfumeria","scian":"465111","personalOcupado":"0 a 5 personas","direccion":"CALLE CANSAHCAB SN","colonia":"PEDREGAL DE SAN NICOLS PRIMERA SECCIN","codigoPostal":"14100","alcaldia":"Tlalpan","lat":19.29562836,"lng":-99.23187388999999,"fechaAlta":"2024-11"}},{"type":"Feature","geometry":{"type":"Point","coordinates":[-99.13025676,19.43105472]},"properties":{"id":"9414037","nombre":"CORREO 47","giro":"perfumeria","scian":"465111","personalOcupado":"0 a 5 personas","direccion":"CALLE CORREO MAYOR 47","colonia":"CENTRO","codigoPostal":"06060","alcaldia":"Cuauhtémoc","lat":19.43105472,"lng":-99.13025676,"fechaAlta":"2023-11"}},{"type":"Feature","geometry":{"type":"Point","coordinates":[-99.19167079,19.46121185]},"properties":{"id":"7400605","nombre":"PRODUCTOS DE BELLEZA","giro":"perfumeria","scian":"465111","personalOcupado":"0 a 5 personas","direccion":"CALLE LAGO GASCASONICA 151","colonia":"SAN DIEGO OCOYOACAC","codigoPostal":"11290","alcaldia":"Miguel Hidalgo","lat":19.46121185,"lng":-99.19167079,"fechaAlta":"2019-11"}},{"type":"Feature","geometry":{"type":"Point","coordinates":[-99.13166692999998,19.57073483]},"properties":{"id":"7769371","nombre":"PRODUCTOS DE BELLEZA","giro":"perfumeria","scian":"465111","personalOcupado":"0 a 5 personas","direccion":"CALLE SAN MIGUEL 2","colonia":"LOMAS DE CUAUTEPEC","codigoPostal":"07110","alcaldia":"Gustavo A. Madero","lat":19.57073483,"lng":-99.13166692999998,"fechaAlta":"2019-11"}},{"type":"Feature","geometry":{"type":"Point","coordinates":[-99.21881625999998,19.27509622]},"properties":{"id":"10899135","nombre":"PRODUCTOS DE BELLEZA","giro":"perfumeria","scian":"465111","personalOcupado":"0 a 5 personas","direccion":"CALLE HECELCHAKAN SN","colonia":"CUCHILLA DE PADIERNA","codigoPostal":"14220","alcaldia":"Tlalpan","lat":19.27509622,"lng":-99.21881625999998,"fechaAlta":"2024-11"}},{"type":"Feature","geometry":{"type":"Point","coordinates":[-99.22546417,19.31788664]},"properties":{"id":"929016","nombre":"PRODUCTOS DE BELLEZA","giro":"perfumeria","scian":"465111","personalOcupado":"0 a 5 personas","direccion":"CALLE TIHUATLAN SN","colonia":"SAN JERNIMO ACULCO","codigoPostal":"10400","alcaldia":"La Magdalena Contreras","lat":19.31788664,"lng":-99.22546417,"fechaAlta":"2014-12"}},{"type":"Feature","geometry":{"type":"Point","coordinates":[-99.2357125,19.36732033]},"properties":{"id":"923169","nombre":"PRODUCTOS DE BELLEZA","giro":"perfumeria","scian":"465111","personalOcupado":"0 a 5 personas","direccion":"AVENIDA SANTA LUCIA 1144","colonia":"GARCIMARRERO","codigoPostal":"01510","alcaldia":"Álvaro Obregón","lat":19.36732033,"lng":-99.2357125,"fechaAlta":"2014-12"}},{"type":"Feature","geometry":{"type":"Point","coordinates":[-99.24342367,19.31692029]},"properties":{"id":"929766","nombre":"PRODUCTOS DE BELLEZA","giro":"perfumeria","scian":"465111","personalOcupado":"0 a 5 personas","direccion":"CALLE CRUZ VERDE 27","colonia":"BARROS SIERRA","codigoPostal":"10380","alcaldia":"La Magdalena Contreras","lat":19.31692029,"lng":-99.24342367,"fechaAlta":"2014-12"}},{"type":"Feature","geometry":{"type":"Point","coordinates":[-99.1032212,19.29974262]},"properties":{"id":"7627516","nombre":"CORAZON DE LA SALUD INTEGRATIVA","giro":"perfumeria","scian":"465111","personalOcupado":"0 a 5 personas","direccion":"CALZADA CALZADA DEL HUESO 1079","colonia":"GRANJAS COAPA","codigoPostal":"14330","alcaldia":"Tlalpan","lat":19.29974262,"lng":-99.1032212,"fechaAlta":"2019-11"}},{"type":"Feature","geometry":{"type":"Point","coordinates":[-99.07119849,19.18404897]},"properties":{"id":"10115200","nombre":"CONSULTORIA DE VENTA DE PRODUCTOS DE MAQUILLAJE","giro":"perfumeria","scian":"465111","personalOcupado":"0 a 5 personas","direccion":"CALLE AVENIDA VICENTE GUERRERO 40","colonia":"SAN PABLO OZTOTEPEC","codigoPostal":"12400","alcaldia":"Milpa Alta","lat":19.18404897,"lng":-99.07119849,"fechaAlta":"2024-11"}},{"type":"Feature","geometry":{"type":"Point","coordinates":[-99.0972776,19.34074166]},"properties":{"id":"10462237","nombre":"CONSMETICOS Y ACCESORIOS LIAH","giro":"perfumeria","scian":"465111","personalOcupado":"0 a 5 personas","direccion":"CALLE VALLE DEL PARAISO SN","colonia":"VALLE DE LUCES","codigoPostal":"09800","alcaldia":"Iztapalapa","lat":19.34074166,"lng":-99.0972776,"fechaAlta":"2024-11"}},{"type":"Feature","geometry":{"type":"Point","coordinates":[-99.15956434,19.29509504]},"properties":{"id":"11780420","nombre":"CONIE BOGART","giro":"perfumeria","scian":"465111","personalOcupado":"11 a 30 personas","direccion":"CALLE SILLN DE MENDOZA 63","colonia":"TORIELLO GUERRA","codigoPostal":"14050","alcaldia":"Tlalpan","lat":19.29509504,"lng":-99.15956434,"fechaAlta":"2025-04"}},{"type":"Feature","geometry":{"type":"Point","coordinates":[-99.13138232000001,19.43795508]},"properties":{"id":"6317930","nombre":"CORPORATIVO VERTE BELLA","giro":"perfumeria","scian":"465111","personalOcupado":"0 a 5 personas","direccion":"CALLE REPBLICA DE ARGENTINA 39","colonia":"CENTRO","codigoPostal":"06010","alcaldia":"Cuauhtémoc","lat":19.43795508,"lng":-99.13138232000001,"fechaAlta":"2010-07"}},{"type":"Feature","geometry":{"type":"Point","coordinates":[-99.17581081,19.2533306]},"properties":{"id":"8681331","nombre":"PRODUCTOS DE BELLEZA","giro":"perfumeria","scian":"465111","personalOcupado":"0 a 5 personas","direccion":"CALLE REFORMA 6","colonia":"SAN ANDRS TOTOLTEPEC","codigoPostal":"14400","alcaldia":"Tlalpan","lat":19.2533306,"lng":-99.17581081,"fechaAlta":"2019-11"}},{"type":"Feature","geometry":{"type":"Point","coordinates":[-99.13211934,19.43750674]},"properties":{"id":"6306632","nombre":"CORPORATIVO VERTE BELLA","giro":"perfumeria","scian":"465111","personalOcupado":"6 a 10 personas","direccion":"CALLE REPBLICA DE VENEZUELA 14","colonia":"CENTRO","codigoPostal":"06020","alcaldia":"Cuauhtémoc","lat":19.43750674,"lng":-99.13211934,"fechaAlta":"2010-07"}},{"type":"Feature","geometry":{"type":"Point","coordinates":[-99.06672612,19.47661239]},"properties":{"id":"845118","nombre":"PRODUCTOS DE BELLEZA","giro":"perfumeria","scian":"465111","personalOcupado":"0 a 5 personas","direccion":"CALLE VOLCAN LA MALINCHE SN","colonia":"LA PRADERA","codigoPostal":"07500","alcaldia":"Gustavo A. Madero","lat":19.47661239,"lng":-99.06672612,"fechaAlta":"2010-07"}},{"type":"Feature","geometry":{"type":"Point","coordinates":[-99.13479788,19.42886456]},"properties":{"id":"10879742","nombre":"CORPORACION AZTECA","giro":"perfumeria","scian":"465111","personalOcupado":"0 a 5 personas","direccion":"CALLE 5 DE FEBRERO 40","colonia":"CENTRO","codigoPostal":"06000","alcaldia":"Cuauhtémoc","lat":19.42886456,"lng":-99.13479788,"fechaAlta":"2024-11"}},{"type":"Feature","geometry":{"type":"Point","coordinates":[-99.17339649,19.27350507]},"properties":{"id":"1005227","nombre":"PRODUCTOS DE BELLEZA","giro":"perfumeria","scian":"465111","personalOcupado":"0 a 5 personas","direccion":"CALLE YAQUIS 9","colonia":"TLALCOLIGIA","codigoPostal":"14430","alcaldia":"Tlalpan","lat":19.27350507,"lng":-99.17339649,"fechaAlta":"2010-07"}},{"type":"Feature","geometry":{"type":"Point","coordinates":[-99.13126845,19.43881971]},"properties":{"id":"11467151","nombre":"CORONA COLOR","giro":"perfumeria","scian":"465111","personalOcupado":"0 a 5 personas","direccion":"CALLE REPUBLICA DE ARGENTINA 51","colonia":"CENTRO","codigoPostal":"06000","alcaldia":"Cuauhtémoc","lat":19.43881971,"lng":-99.13126845,"fechaAlta":"2024-11"}},{"type":"Feature","geometry":{"type":"Point","coordinates":[-99.12461944,19.27475321]},"properties":{"id":"7627658","nombre":"PRODUCTOS DE BELLEZA","giro":"perfumeria","scian":"465111","personalOcupado":"0 a 5 personas","direccion":"CALLE PERA VERDINAL 185","colonia":"PASEOS DEL SUR","codigoPostal":"16010","alcaldia":"Xochimilco","lat":19.27475321,"lng":-99.12461944,"fechaAlta":"2019-11"}},{"type":"Feature","geometry":{"type":"Point","coordinates":[-99.11343548,19.48500629]},"properties":{"id":"7802094","nombre":"CONFETTI","giro":"perfumeria","scian":"465111","personalOcupado":"0 a 5 personas","direccion":"CALLE 5 DE FEBRERO 81","colonia":"MARTN CARRERA","codigoPostal":"07070","alcaldia":"Gustavo A. Madero","lat":19.48500629,"lng":-99.11343548,"fechaAlta":"2019-11"}},{"type":"Feature","geometry":{"type":"Point","coordinates":[-99.13512769,19.44370115]},"properties":{"id":"10121351","nombre":"COMPRA VENTA DE ARTICULO DE COSMETICOS REGALOS","giro":"perfumeria","scian":"465111","personalOcupado":"0 a 5 personas","direccion":"EJE VIAL 1 NORTE IGNACIO LOPEZ RAYON 33","colonia":"MORELOS","codigoPostal":"06200","alcaldia":"Cuauhtémoc","lat":19.44370115,"lng":-99.13512769,"fechaAlta":"2024-11"}},{"type":"Feature","geometry":{"type":"Point","coordinates":[-99.01239749,19.25552048]},"properties":{"id":"1041815","nombre":"PRODUCTOS DE BELLEZA","giro":"perfumeria","scian":"465111","personalOcupado":"0 a 5 personas","direccion":"CALLE JOSEFA ORTIZ DE DOMINGUEZ 4","colonia":"CALYEQUITA","codigoPostal":"16750","alcaldia":"Xochimilco","lat":19.25552048,"lng":-99.01239749,"fechaAlta":"2010-07"}},{"type":"Feature","geometry":{"type":"Point","coordinates":[-99.14527284,19.44504427]},"properties":{"id":"11047842","nombre":"PRODUCTOS DE BELLEZA","giro":"perfumeria","scian":"465111","personalOcupado":"0 a 5 personas","direccion":"EJE VIAL 1 NORTE MOSQUETA SN","colonia":"GUERRERO","codigoPostal":"06300","alcaldia":"Cuauhtémoc","lat":19.44504427,"lng":-99.14527284,"fechaAlta":"2024-11"}},{"type":"Feature","geometry":{"type":"Point","coordinates":[-99.12155164,19.47414801]},"properties":{"id":"11413710","nombre":"PRODUCTOS DE BELLEZA","giro":"perfumeria","scian":"465111","personalOcupado":"0 a 5 personas","direccion":"CALZADA CALZADA DE GUADALUPE 488","colonia":"INDUSTRIAL","codigoPostal":"07800","alcaldia":"Gustavo A. Madero","lat":19.47414801,"lng":-99.12155164,"fechaAlta":"2024-11"}},{"type":"Feature","geometry":{"type":"Point","coordinates":[-99.17721995,19.30045098]},"properties":{"id":"857627","nombre":"COMPOSTURAS CONFECCIONES Y BLANCOS","giro":"perfumeria","scian":"465111","personalOcupado":"0 a 5 personas","direccion":"CALLE 4 PONIENTE 282","colonia":"ISIDRO FABELA","codigoPostal":"14030","alcaldia":"Tlalpan","lat":19.30045098,"lng":-99.17721995,"fechaAlta":"2010-07"}},{"type":"Feature","geometry":{"type":"Point","coordinates":[-99.14527284,19.44504427]},"properties":{"id":"878730","nombre":"PRODUCTOS DE BELLEZA","giro":"perfumeria","scian":"465111","personalOcupado":"0 a 5 personas","direccion":"EJE VIAL 1 NORTE MOSQUETA SN","colonia":"GUERRERO","codigoPostal":"06300","alcaldia":"Cuauhtémoc","lat":19.44504427,"lng":-99.14527284,"fechaAlta":"2010-07"}},{"type":"Feature","geometry":{"type":"Point","coordinates":[-99.1537498,19.43822874]},"properties":{"id":"11631977","nombre":"PRODUCTOS DE BELLEZA","giro":"perfumeria","scian":"465111","personalOcupado":"0 a 5 personas","direccion":"CALLE PONCIANO ARRIAGA 9","colonia":"TABACALERA","codigoPostal":"06030","alcaldia":"Cuauhtémoc","lat":19.43822874,"lng":-99.1537498,"fechaAlta":"2024-11"}},{"type":"Feature","geometry":{"type":"Point","coordinates":[-99.11589157,19.47545307]},"properties":{"id":"10393329","nombre":"PRODUCTOS DE BELLEZA","giro":"perfumeria","scian":"465111","personalOcupado":"0 a 5 personas","direccion":"CALLE JOYAS SN","colonia":"ESTRELLA","codigoPostal":"07810","alcaldia":"Gustavo A. Madero","lat":19.47545307,"lng":-99.11589157,"fechaAlta":"2024-11"}},{"type":"Feature","geometry":{"type":"Point","coordinates":[-99.13039028,19.43822791]},"properties":{"id":"9671547","nombre":"PRODUCTOS DE BELLEZA","giro":"perfumeria","scian":"465111","personalOcupado":"0 a 5 personas","direccion":"CALLE REPUBLICA DE COLOMBIA 66","colonia":"CENTRO","codigoPostal":"06000","alcaldia":"Cuauhtémoc","lat":19.43822791,"lng":-99.13039028,"fechaAlta":"2024-11"}},{"type":"Feature","geometry":{"type":"Point","coordinates":[-99.14730955,19.33384839]},"properties":{"id":"11220952","nombre":"COMESTICOS HUITZIL","giro":"perfumeria","scian":"465111","personalOcupado":"0 a 5 personas","direccion":"CALLE EMILIANO ZAPATA 14","colonia":"LA CANDELARIA","codigoPostal":"04380","alcaldia":"Coyoacán","lat":19.33384839,"lng":-99.14730955,"fechaAlta":"2024-11"}},{"type":"Feature","geometry":{"type":"Point","coordinates":[-99.04732867,19.39122586]},"properties":{"id":"8377227","nombre":"COMESTIC CRISTY","giro":"perfumeria","scian":"465111","personalOcupado":"0 a 5 personas","direccion":"CALZADA GENERAL IGNACIO ZARAGOZA SN","colonia":"UNIDAD EJRCITO CONSTITUCIONALISTA","codigoPostal":"09210","alcaldia":"Iztapalapa","lat":19.39122586,"lng":-99.04732867,"fechaAlta":"2019-11"}},{"type":"Feature","geometry":{"type":"Point","coordinates":[-99.09537955,19.47408434]},"properties":{"id":"6845102","nombre":"COMERCIO DE ARTCULOS DE PERFUMERA Y COSMTICOS SIN NOMBRE","giro":"perfumeria","scian":"465111","personalOcupado":"0 a 5 personas","direccion":"OTRO(ESPECIFIQUE) MANZANA O EDIFICACIN CONTIGUA 439","colonia":"DM NACIONAL","codigoPostal":"07480","alcaldia":"Gustavo A. Madero","lat":19.47408434,"lng":-99.09537955,"fechaAlta":"2018-03"}},{"type":"Feature","geometry":{"type":"Point","coordinates":[-99.12221262,19.47250975]},"properties":{"id":"9452636","nombre":"COMERCIO DE ARTCULOS DE PERFUMERA Y COSMTICOS SIN NOMBRE","giro":"perfumeria","scian":"465111","personalOcupado":"0 a 5 personas","direccion":"CALZADA CALZADA DE GUADALUPE 448","colonia":"INDUSTRIAL","codigoPostal":"07580","alcaldia":"Gustavo A. Madero","lat":19.47250975,"lng":-99.12221262,"fechaAlta":"2023-11"}},{"type":"Feature","geometry":{"type":"Point","coordinates":[-99.16246444,19.49418013]},"properties":{"id":"9170280","nombre":"COMPAIA COMERCIALIZADORA PRODIN CENTRO","giro":"perfumeria","scian":"465111","personalOcupado":"101 a 250 personas","direccion":"CALLE PONIENTE 134 650","colonia":"INDUSTRIAL VALLEJO","codigoPostal":"02300","alcaldia":"Azcapotzalco","lat":19.49418013,"lng":-99.16246444,"fechaAlta":"2019-11"}},{"type":"Feature","geometry":{"type":"Point","coordinates":[-99.0118767,19.25268151]},"properties":{"id":"1040683","nombre":"PRODUCTOS DE BELLEZA","giro":"perfumeria","scian":"465111","personalOcupado":"0 a 5 personas","direccion":"CALLE AVENIDA DE LA PAZ 25","colonia":"CALYEQUITA","codigoPostal":"16750","alcaldia":"Xochimilco","lat":19.25268151,"lng":-99.0118767,"fechaAlta":"2010-07"}},{"type":"Feature","geometry":{"type":"Point","coordinates":[-99.11937014,19.37400064]},"properties":{"id":"10409108","nombre":"COMIS COSMETICOS","giro":"perfumeria","scian":"465111","personalOcupado":"0 a 5 personas","direccion":"CALZADA SAN JUANICO 40","colonia":"SAN JUANICO NEXTIPAC","codigoPostal":"09430","alcaldia":"Iztapalapa","lat":19.37400064,"lng":-99.11937014,"fechaAlta":"2024-11"}},{"type":"Feature","geometry":{"type":"Point","coordinates":[-99.13011383,19.45989847]},"properties":{"id":"851425","nombre":"PRODUCTOS DE BELLEZA","giro":"perfumeria","scian":"465111","personalOcupado":"0 a 5 personas","direccion":"CALLE LUDWING VAN BEETHOVEN 17","colonia":"PERALVILLO","codigoPostal":"06220","alcaldia":"Cuauhtémoc","lat":19.45989847,"lng":-99.13011383,"fechaAlta":"2010-07"}},{"type":"Feature","geometry":{"type":"Point","coordinates":[-99.2553672,19.31785679]},"properties":{"id":"11801203","nombre":"COMETICOS MARIPOSA","giro":"perfumeria","scian":"465111","personalOcupado":"0 a 5 personas","direccion":"CIRCUITO CANTERA 6","colonia":"LAS CRUCES","codigoPostal":"10330","alcaldia":"La Magdalena Contreras","lat":19.31785679,"lng":-99.2553672,"fechaAlta":"2025-04"}},{"type":"Feature","geometry":{"type":"Point","coordinates":[-99.13346946,19.51601316]},"properties":{"id":"660624","nombre":"PRODUCTOS DE BELLEZA","giro":"perfumeria","scian":"465111","personalOcupado":"0 a 5 personas","direccion":"CALLE 21 DE MARZO 292","colonia":"SANTA MARA TICOMN","codigoPostal":"07330","alcaldia":"Gustavo A. Madero","lat":19.51601316,"lng":-99.13346946,"fechaAlta":"2010-07"}},{"type":"Feature","geometry":{"type":"Point","coordinates":[-99.14499003,19.47753054]},"properties":{"id":"10719696","nombre":"COMETICOS","giro":"perfumeria","scian":"465111","personalOcupado":"0 a 5 personas","direccion":"CALLE NORTE 9 SN","colonia":"PANAMERICANA","codigoPostal":"07770","alcaldia":"Gustavo A. Madero","lat":19.47753054,"lng":-99.14499003,"fechaAlta":"2024-11"}},{"type":"Feature","geometry":{"type":"Point","coordinates":[-99.15765784,19.41233992]},"properties":{"id":"665778","nombre":"COMERCIO DE ARTCULOS DE PERFUMERA Y COSMTICOS SIN NOMBRE","giro":"perfumeria","scian":"465111","personalOcupado":"0 a 5 personas","direccion":"CALLE COAHUILA 61","colonia":"ROMA NORTE","codigoPostal":"02600","alcaldia":"Cuauhtémoc","lat":19.41233992,"lng":-99.15765784,"fechaAlta":"2011-03"}},{"type":"Feature","geometry":{"type":"Point","coordinates":[-99.13279521,19.49340335]},"properties":{"id":"9010483","nombre":"PRODUCTOS COSMETICOS Y SUPLEMENTOS SIN NOMBRE","giro":"perfumeria","scian":"465111","personalOcupado":"0 a 5 personas","direccion":"AVENIDA INSTITUTO POLITECNICO NACIONAL 1833","colonia":"LINDAVISTA SUR","codigoPostal":"07300","alcaldia":"Gustavo A. Madero","lat":19.49340335,"lng":-99.13279521,"fechaAlta":"2019-11"}},{"type":"Feature","geometry":{"type":"Point","coordinates":[-99.0712308,19.45203503]},"properties":{"id":"819094","nombre":"PRODUCTOS COSMETICOS","giro":"perfumeria","scian":"465111","personalOcupado":"0 a 5 personas","direccion":"CALLE AVENIDA 599 SN","colonia":"SAN JUAN DE ARAGN III SECCIN","codigoPostal":"07970","alcaldia":"Gustavo A. Madero","lat":19.45203503,"lng":-99.0712308,"fechaAlta":"2010-07"}},{"type":"Feature","geometry":{"type":"Point","coordinates":[-99.1819396,19.45767569]},"properties":{"id":"11527795","nombre":"ACCESORIOS AL MAYOREO JULIA","giro":"perfumeria","scian":"465111","personalOcupado":"0 a 5 personas","direccion":"CALZADA MEXICO TACUBA SN","colonia":"POPOTLA","codigoPostal":"11400","alcaldia":"Miguel Hidalgo","lat":19.45767569,"lng":-99.1819396,"fechaAlta":"2024-11"}},{"type":"Feature","geometry":{"type":"Point","coordinates":[-99.11073878,19.32141028]},"properties":{"id":"11357992","nombre":"PRODUCTOS CAPILARES PANDA TINTES","giro":"perfumeria","scian":"465111","personalOcupado":"0 a 5 personas","direccion":"CALZADA CALZADA DE LA VIRGEN 4","colonia":"CULHUACN CTM SECCIN PILOTO","codigoPostal":"04490","alcaldia":"Coyoacán","lat":19.32141028,"lng":-99.11073878,"fechaAlta":"2024-11"}},{"type":"Feature","geometry":{"type":"Point","coordinates":[-99.10906450999998,19.33895663]},"properties":{"id":"664725","nombre":"PRODUCTOS BELLEZA IDEES","giro":"perfumeria","scian":"465111","personalOcupado":"0 a 5 personas","direccion":"AVENIDA TLAHUAC 299","colonia":"SAN ANTONIO CULHUACAN","codigoPostal":"09800","alcaldia":"Iztapalapa","lat":19.33895663,"lng":-99.10906450999998,"fechaAlta":"2010-07"}},{"type":"Feature","geometry":{"type":"Point","coordinates":[-99.03250158,19.297041]},"properties":{"id":"9007035","nombre":"PRODUCTOS DE BELLEZA","giro":"perfumeria","scian":"465111","personalOcupado":"0 a 5 personas","direccion":"AVENIDA TLAHUAC 6600","colonia":"SANTA ANA NORTE","codigoPostal":"13300","alcaldia":"Tláhuac","lat":19.297041,"lng":-99.03250158,"fechaAlta":"2019-11"}},{"type":"Feature","geometry":{"type":"Point","coordinates":[-99.03148655,19.25962819]},"properties":{"id":"10451089","nombre":"PRODUCTOS DE BELLESA Y REGALOS YURI","giro":"perfumeria","scian":"465111","personalOcupado":"0 a 5 personas","direccion":"CALLE AO DE JUAREZ SN","colonia":"SAN LUIS TLASHALTEMALCO","codigoPostal":"16610","alcaldia":"Xochimilco","lat":19.25962819,"lng":-99.03148655,"fechaAlta":"2024-11"}},{"type":"Feature","geometry":{"type":"Point","coordinates":[-99.11306229,19.38679433]},"properties":{"id":"792517","nombre":"PRODUCTOS DE BELLESA DIVINO NIO","giro":"perfumeria","scian":"465111","personalOcupado":"0 a 5 personas","direccion":"CALLE MIGUEL GARCIA 41","colonia":"CAMPAMENTO DOS DE OCTUBRE","codigoPostal":"08930","alcaldia":"Iztacalco","lat":19.38679433,"lng":-99.11306229,"fechaAlta":"2010-07"}},{"type":"Feature","geometry":{"type":"Point","coordinates":[-99.14104882,19.37164073]},"properties":{"id":"903494","nombre":"PRODUCTOS DE BELLA PALOMA","giro":"perfumeria","scian":"465111","personalOcupado":"0 a 5 personas","direccion":"CALZADA CALZADA DE TLALPAN SN","colonia":"ALBERT","codigoPostal":"03560","alcaldia":"Benito Juárez","lat":19.37164073,"lng":-99.14104882,"fechaAlta":"2014-12"}},{"type":"Feature","geometry":{"type":"Point","coordinates":[-99.03798669,19.3728362]},"properties":{"id":"9529337","nombre":"PRODUCTOS BELLEZA HADASSAH","giro":"perfumeria","scian":"465111","personalOcupado":"0 a 5 personas","direccion":"CALLE BATALLA DE OCOTLAN SN","colonia":"LVARO OBREGN","codigoPostal":"09230","alcaldia":"Iztapalapa","lat":19.3728362,"lng":-99.03798669,"fechaAlta":"2024-11"}},{"type":"Feature","geometry":{"type":"Point","coordinates":[-99.08043332,19.33347662]},"properties":{"id":"724007","nombre":"PRODUCTOS AVON","giro":"perfumeria","scian":"465111","personalOcupado":"0 a 5 personas","direccion":"CALLE CHABACANO 45","colonia":"SAN JUAN XALPA","codigoPostal":"09858","alcaldia":"Iztapalapa","lat":19.33347662,"lng":-99.08043332,"fechaAlta":"2014-12"}},{"type":"Feature","geometry":{"type":"Point","coordinates":[-99.23740996,19.28944814]},"properties":{"id":"11198141","nombre":"AJUSK -IN PRODUCTOS DE BELLEZA","giro":"perfumeria","scian":"465111","personalOcupado":"0 a 5 personas","direccion":"CALLE ACANCEH 4069","colonia":"PEDREGAL DE SAN NICOLS SEGUNDA SECCIN","codigoPostal":"14100","alcaldia":"Tlalpan","lat":19.28944814,"lng":-99.23740996,"fechaAlta":"2024-11"}},{"type":"Feature","geometry":{"type":"Point","coordinates":[-99.128318,19.43012745]},"properties":{"id":"8625464","nombre":"ALEX","giro":"perfumeria","scian":"465111","personalOcupado":"0 a 5 personas","direccion":"CALLE VENUSTIANO CARRANZA 155","colonia":"CENTRO","codigoPostal":"06000","alcaldia":"Cuauhtémoc","lat":19.43012745,"lng":-99.128318,"fechaAlta":"2019-11"}},{"type":"Feature","geometry":{"type":"Point","coordinates":[-99.12723343,19.43095909]},"properties":{"id":"10499683","nombre":"ALACEADOS","giro":"perfumeria","scian":"465111","personalOcupado":"0 a 5 personas","direccion":"CALLE ALHONDIGA 26","colonia":"CENTRO","codigoPostal":"06060","alcaldia":"Cuauhtémoc","lat":19.43095909,"lng":-99.12723343,"fechaAlta":"2024-11"}},{"type":"Feature","geometry":{"type":"Point","coordinates":[-99.2286856,19.29010661]},"properties":{"id":"8442822","nombre":"AFRODITA BELLEZA","giro":"perfumeria","scian":"465111","personalOcupado":"0 a 5 personas","direccion":"CALLE POMUCH SN","colonia":"LOMAS DE PADIERNA","codigoPostal":"14240","alcaldia":"Tlalpan","lat":19.29010661,"lng":-99.2286856,"fechaAlta":"2019-11"}},{"type":"Feature","geometry":{"type":"Point","coordinates":[-99.1293496,19.43774183]},"properties":{"id":"10158659","nombre":"ADYS COLLECCION","giro":"perfumeria","scian":"465111","personalOcupado":"0 a 5 personas","direccion":"CALLE CALLE DEL CARMEN 46","colonia":"CENTRO","codigoPostal":"06010","alcaldia":"Cuauhtémoc","lat":19.43774183,"lng":-99.1293496,"fechaAlta":"2024-11"}},{"type":"Feature","geometry":{"type":"Point","coordinates":[-99.16636106,19.44382663]},"properties":{"id":"9944503","nombre":"AIDE GARLAND","giro":"perfumeria","scian":"465111","personalOcupado":"0 a 5 personas","direccion":"CALZADA MEXICO TACUBA 16","colonia":"TLAXPANA","codigoPostal":"11370","alcaldia":"Miguel Hidalgo","lat":19.44382663,"lng":-99.16636106,"fechaAlta":"2024-11"}},{"type":"Feature","geometry":{"type":"Point","coordinates":[-99.08114712,19.47602209]},"properties":{"id":"8277663","nombre":"AIDE GARLAND","giro":"perfumeria","scian":"465111","personalOcupado":"0 a 5 personas","direccion":"CALLE PUERTO TAMPICO 59","colonia":"AMPLIACIN CASAS ALEMN","codigoPostal":"07580","alcaldia":"Gustavo A. Madero","lat":19.47602209,"lng":-99.08114712,"fechaAlta":"2019-11"}},{"type":"Feature","geometry":{"type":"Point","coordinates":[-99.10928484999998,19.33819203]},"properties":{"id":"8781988","nombre":"ACCESORIOSCOSMETICOS Y REGALOS SIN NOMBRE","giro":"perfumeria","scian":"465111","personalOcupado":"0 a 5 personas","direccion":"CALZADA TAXQUEA SN","colonia":"SAN ANTONIO CULHUACAN","codigoPostal":"09800","alcaldia":"Iztapalapa","lat":19.33819203,"lng":-99.10928484999998,"fechaAlta":"2019-11"}},{"type":"Feature","geometry":{"type":"Point","coordinates":[-99.06893304,19.39942982]},"properties":{"id":"10593455","nombre":"ACCESORIOS Y NOVEDADES ANA KAWAII","giro":"perfumeria","scian":"465111","personalOcupado":"0 a 5 personas","direccion":"AVENIDA SUR 8 4","colonia":"AGRCOLA ORIENTAL","codigoPostal":"08500","alcaldia":"Iztacalco","lat":19.39942982,"lng":-99.06893304,"fechaAlta":"2024-11"}},{"type":"Feature","geometry":{"type":"Point","coordinates":[-99.198199,19.28499947]},"properties":{"id":"7594769","nombre":"ADONAY YIRET","giro":"perfumeria","scian":"465111","personalOcupado":"0 a 5 personas","direccion":"CALLE JESUS LECUONA 517","colonia":"MIGUEL HIDALGO SEGUNDA SECCIN","codigoPostal":"14250","alcaldia":"Tlalpan","lat":19.28499947,"lng":-99.198199,"fechaAlta":"2019-11"}},{"type":"Feature","geometry":{"type":"Point","coordinates":[-99.08018347,19.30543291]},"properties":{"id":"9527890","nombre":"ADARA COSMETICOS","giro":"perfumeria","scian":"465111","personalOcupado":"0 a 5 personas","direccion":"CALLE 20 16","colonia":"JOS LPEZ PORTILLO","codigoPostal":"09920","alcaldia":"Iztapalapa","lat":19.30543291,"lng":-99.08018347,"fechaAlta":"2024-11"}},{"type":"Feature","geometry":{"type":"Point","coordinates":[-99.03301838,19.3438114]},